{"destination": {"type": "Module","target": ""},"content_type": "RoutingResponse","content": {"statistics": [{"category": "routing","entries": [{"name": "labels_created","value": 61236},{"name": "labels_dominated_by_former_labels","value": 10742},{"name": "labels_dominated_by_later_labels","value": 1879},{"name": "labels_dominated_by_results","value": 12198},{"name": "labels_equals_popped","value": 1030},{"name": "labels_popped","value": 38432},{"name": "labels_popped_after_last_result","value": 326},{"name": "labels_popped_until_first_result","value": 2708},{"name": "num_bytes_in_use","value": 67108864},{"name": "pareto_dijkstra","value": 16},{"name": "priority_queue_max_size","value": 2778},{"name": "start_label_count","value": 13},{"name": "total_calculation_time","value": 26},{"name": "transfers_lb","value": 6},{"name": "travel_time_lb","value": 2}]}],"connections": [{"stops": [{"station": {"id": "8571284","name": "Gstaad, Trom","pos": {"lat": 46.458988,"lng": 7.305119}},"arrival": {"time": 0,"schedule_time": 0,"track": "","schedule_track": "","valid": false,"reason": "SCHEDULE"},"departure": {"time": 1629990240,"schedule_time": 1629990240,"track": "","schedule_track": "","valid": true,"reason": "SCHEDULE"},"exit": false,"enter": true},{"station": {"id": "8571283","name": "Gstaad, Badweidli","pos": {"lat": 46.466015,"lng": 7.297194}},"arrival": {"time": 1629990360,"schedule_time": 1629990360,"track": "","schedule_track": "","valid": true,"reason": "SCHEDULE"},"departure": {"time": 1629990360,"schedule_time": 1629990360,"track": "","schedule_track": "","valid": true,"reason": "SCHEDULE"},"exit": false,"enter": false},{"station": {"id": "8571282","name": "Gstaad, Krambr\u00FCcke","pos": {"lat": 46.470066,"lng": 7.293304}},"arrival": {"time": 1629990420,"schedule_time": 1629990420,"track": "","schedule_track": "","valid": true,"reason": "SCHEDULE"},"departure": {"time": 1629990420,"schedule_time": 1629990420,"track": "","schedule_track": "","valid": true,"reason": "SCHEDULE"},"exit": false,"enter": false},{"station": {"id": "8581189","name": "Gstaad, Ober-Gstaad","pos": {"lat": 46.472008,"lng": 7.287115}},"arrival": {"time": 1629990480,"schedule_time": 1629990480,"track": "","schedule_track": "","valid": true,"reason": "SCHEDULE"},"departure": {"time": 1629990480,"schedule_time": 1629990480,"track": "","schedule_track": "","valid": true,"reason": "SCHEDULE"},"exit": false,"enter": false},{"station": {"id": "8581187","name": "Gstaad, Sportzentrum","pos": {"lat": 46.471184,"lng": 7.283495}},"arrival": {"time": 1629990480,"schedule_time": 1629990480,"track": "","schedule_track": "","valid": true,"reason": "SCHEDULE"},"departure": {"time": 1629990480,"schedule_time": 1629990480,"track": "","schedule_track": "","valid": true,"reason": "SCHEDULE"},"exit": false,"enter": false},{"station": {"id": "8581360","name": "Gstaad, Unter-Gstaad","pos": {"lat": 46.477917,"lng": 7.282498}},"arrival": {"time": 1629990540,"schedule_time": 1629990540,"track": "","schedule_track": "","valid": true,"reason": "SCHEDULE"},"departure": {"time": 1629990540,"schedule_time": 1629990540,"track": "","schedule_track": "","valid": true,"reason": "SCHEDULE"},"exit": false,"enter": false},{"station": {"id": "8571264","name": "Gstaad, Bahnhof","pos": {"lat": 46.475536,"lng": 7.283701}},"arrival": {"time": 1629991020,"schedule_time": 1629991020,"track": "","schedule_track": "","valid": true,"reason": "SCHEDULE"},"departure": {"time": 1629991020,"schedule_time": 1629991020,"track": "","schedule_track": "","valid": true,"reason": "SCHEDULE"},"exit": true,"enter": false},{"station": {"id": "8501399P","name": "Gstaad","pos": {"lat": 46.474804,"lng": 7.284411}},"arrival": {"time": 1629991140,"schedule_time": 1629991140,"track": "","schedule_track": "","valid": true,"reason": "SCHEDULE"},"departure": {"time": 1629991140,"schedule_time": 1629991140,"track": "","schedule_track": "","valid": true,"reason": "SCHEDULE"},"exit": false,"enter": false},{"station": {"id": "8501399:0:1","name": "Gstaad","pos": {"lat": 46.474804,"lng": 7.284411}},"arrival": {"time": 1629991260,"schedule_time": 1629991260,"track": "","schedule_track": "","valid": true,"reason": "SCHEDULE"},"departure": {"time": 1629991500,"schedule_time": 1629991500,"track": "","schedule_track": "","valid": true,"reason": "SCHEDULE"},"exit": false,"enter": true},{"station": {"id": "8507270:0:2","name": "Gruben","pos": {"lat": 46.49054,"lng": 7.280127}},"arrival": {"time": 1629991740,"schedule_time": 1629991740,"track": "","schedule_track": "","valid": true,"reason": "SCHEDULE"},"departure": {"time": 1629991740,"schedule_time": 1629991740,"track": "","schedule_track": "","valid": true,"reason": "SCHEDULE"},"exit": false,"enter": false},{"station": {"id": "8507271","name": "Sch\u00F6nried","pos": {"lat": 46.504539,"lng": 7.291104}},"arrival": {"time": 1629992040,"schedule_time": 1629992040,"track": "","schedule_track": "","valid": true,"reason": "SCHEDULE"},"departure": {"time": 1629992040,"schedule_time": 1629992040,"track": "","schedule_track": "","valid": true,"reason": "SCHEDULE"},"exit": false,"enter": false},{"station": {"id": "8507272:0:2","name": "Saanenm\u00F6ser","pos": {"lat": 46.517605,"lng": 7.311721}},"arrival": {"time": 1629992400,"schedule_time": 1629992400,"track": "","schedule_track": "","valid": true,"reason": "SCHEDULE"},"departure": {"time": 1629992400,"schedule_time": 1629992400,"track": "","schedule_track": "","valid": true,"reason": "SCHEDULE"},"exit": false,"enter": false},{"station": {"id": "8507273","name": "Oeschseite","pos": {"lat": 46.531368,"lng": 7.352289}},"arrival": {"time": 1629992760,"schedule_time": 1629992760,"track": "","schedule_track": "","valid": true,"reason": "SCHEDULE"},"departure": {"time": 1629992760,"schedule_time": 1629992760,"track": "","schedule_track": "","valid": true,"reason": "SCHEDULE"},"exit": false,"enter": false},{"station": {"id": "8507290:0:5","name": "Zweisimmen","pos": {"lat": 46.553478,"lng": 7.374864}},"arrival": {"time": 1629993420,"schedule_time": 1629993420,"track": "","schedule_track": "","valid": true,"reason": "SCHEDULE"},"departure": {"time": 1629993420,"schedule_time": 1629993420,"track": "","schedule_track": "","valid": true,"reason": "SCHEDULE"},"exit": true,"enter": false},{"station": {"id": "8507290P","name": "Zweisimmen","pos": {"lat": 46.553478,"lng": 7.374864}},"arrival": {"time": 1629993540,"schedule_time": 1629993540,"track": "","schedule_track": "","valid": true,"reason": "SCHEDULE"},"departure": {"time": 1629993540,"schedule_time": 1629993540,"track": "","schedule_track": "","valid": true,"reason": "SCHEDULE"},"exit": false,"enter": false},{"station": {"id": "8507290:0:6","name": "Zweisimmen","pos": {"lat": 46.553478,"lng": 7.374864}},"arrival": {"time": 1629993660,"schedule_time": 1629993660,"track": "","schedule_track": "","valid": true,"reason": "SCHEDULE"},"departure": {"time": 1629993720,"schedule_time": 1629993720,"track": "","schedule_track": "","valid": true,"reason": "SCHEDULE"},"exit": false,"enter": true},{"station": {"id": "8507292:0:1","name": "Boltigen","pos": {"lat": 46.627369,"lng": 7.390072}},"arrival": {"time": 1629994200,"schedule_time": 1629994200,"track": "","schedule_track": "","valid": true,"reason": "SCHEDULE"},"departure": {"time": 1629994260,"schedule_time": 1629994260,"track": "","schedule_track": "","valid": true,"reason": "SCHEDULE"},"exit": false,"enter": false},{"station": {"id": "8507284:0:1","name": "Enge im Simmental","pos": {"lat": 46.647533,"lng": 7.417623}},"arrival": {"time": 1629994440,"schedule_time": 1629994440,"track": "","schedule_track": "","valid": true,"reason": "SCHEDULE"},"departure": {"time": 1629994440,"schedule_time": 1629994440,"track": "","schedule_track": "","valid": true,"reason": "SCHEDULE"},"exit": false,"enter": false},{"station": {"id": "8507293:0:1","name": "Oberwil im Simmental","pos": {"lat": 46.656132,"lng": 7.435482}},"arrival": {"time": 1629994620,"schedule_time": 1629994620,"track": "","schedule_track": "","valid": true,"reason": "SCHEDULE"},"departure": {"time": 1629994620,"schedule_time": 1629994620,"track": "","schedule_track": "","valid": true,"reason": "SCHEDULE"},"exit": false,"enter": false},{"station": {"id": "8507294:0:1","name": "Weissenburg","pos": {"lat": 46.659294,"lng": 7.475924}},"arrival": {"time": 1629994800,"schedule_time": 1629994800,"track": "","schedule_track": "","valid": true,"reason": "SCHEDULE"},"departure": {"time": 1629994800,"schedule_time": 1629994800,"track": "","schedule_track": "","valid": true,"reason": "SCHEDULE"},"exit": false,"enter": false},{"station": {"id": "8507295:0:2","name": "D\u00E4rstetten","pos": {"lat": 46.658718,"lng": 7.495696}},"arrival": {"time": 1629994980,"schedule_time": 1629994980,"track": "","schedule_track": "","valid": true,"reason": "SCHEDULE"},"departure": {"time": 1629994980,"schedule_time": 1629994980,"track": "","schedule_track": "","valid": true,"reason": "SCHEDULE"},"exit": false,"enter": false},{"station": {"id": "8507286:0:1","name": "Ringoldingen","pos": {"lat": 46.657555,"lng": 7.524577}},"arrival": {"time": 1629995160,"schedule_time": 1629995160,"track": "","schedule_track": "","valid": true,"reason": "SCHEDULE"},"departure": {"time": 1629995160,"schedule_time": 1629995160,"track": "","schedule_track": "","valid": true,"reason": "SCHEDULE"},"exit": false,"enter": false},{"station": {"id": "8507296:0:2","name": "Erlenbach im Simmental","pos": {"lat": 46.659092,"lng": 7.555235}},"arrival": {"time": 1629995400,"schedule_time": 1629995400,"track": "","schedule_track": "","valid": true,"reason": "SCHEDULE"},"departure": {"time": 1629995400,"schedule_time": 1629995400,"track": "","schedule_track": "","valid": true,"reason": "SCHEDULE"},"exit": false,"enter": false},{"station": {"id": "8507297:0:1","name": "Oey-Diemtigen","pos": {"lat": 46.659885,"lng": 7.579149}},"arrival": {"time": 1629995580,"schedule_time": 1629995580,"track": "","schedule_track": "","valid": true,"reason": "SCHEDULE"},"departure": {"time": 1629995640,"schedule_time": 1629995640,"track": "","schedule_track": "","valid": true,"reason": "SCHEDULE"},"exit": false,"enter": false},{"station": {"id": "8507287:0:1","name": "Burgholz","pos": {"lat": 46.666473,"lng": 7.605424}},"arrival": {"time": 1629995760,"schedule_time": 1629995760,"track": "","schedule_track": "","valid": true,"reason": "SCHEDULE"},"departure": {"time": 1629995760,"schedule_time": 1629995760,"track": "","schedule_track": "","valid": true,"reason": "SCHEDULE"},"exit": false,"enter": false},{"station": {"id": "8507298:0:1","name": "Wimmis","pos": {"lat": 46.67572,"lng": 7.6356}},"arrival": {"time": 1629996000,"schedule_time": 1629996000,"track": "","schedule_track": "","valid": true,"reason": "SCHEDULE"},"departure": {"time": 1629996000,"schedule_time": 1629996000,"track": "","schedule_track": "","valid": true,"reason": "SCHEDULE"},"exit": false,"enter": false},{"station": {"id": "8507288:0:1","name": "Eifeld","pos": {"lat": 46.683868,"lng": 7.642273}},"arrival": {"time": 1629996060,"schedule_time": 1629996060,"track": "","schedule_track": "","valid": true,"reason": "SCHEDULE"},"departure": {"time": 1629996060,"schedule_time": 1629996060,"track": "","schedule_track": "","valid": true,"reason": "SCHEDULE"},"exit": false,"enter": false},{"station": {"id": "8507299:0:1","name": "Lattigen bei Spiez","pos": {"lat": 46.691135,"lng": 7.650269}},"arrival": {"time": 1629996180,"schedule_time": 1629996180,"track": "","schedule_track": "","valid": true,"reason": "SCHEDULE"},"departure": {"time": 1629996180,"schedule_time": 1629996180,"track": "","schedule_track": "","valid": true,"reason": "SCHEDULE"},"exit": false,"enter": false},{"station": {"id": "8507483:0:5","name": "Spiez","pos": {"lat": 46.686398,"lng": 7.680101}},"arrival": {"time": 1629996420,"schedule_time": 1629996420,"track": "","schedule_track": "","valid": true,"reason": "SCHEDULE"},"departure": {"time": 1629996600,"schedule_time": 1629996600,"track": "","schedule_track": "","valid": true,"reason": "SCHEDULE"},"exit": true,"enter": true},{"station": {"id": "8507100:0:2","name": "Thun","pos": {"lat": 46.754852,"lng": 7.629607}},"arrival": {"time": 1629997080,"schedule_time": 1629997080,"track": "","schedule_track": "","valid": true,"reason": "SCHEDULE"},"departure": {"time": 1629997140,"schedule_time": 1629997140,"track": "","schedule_track": "","valid": true,"reason": "SCHEDULE"},"exit": false,"enter": false},{"station": {"id": "8507006:0:2","name": "M\u00FCnsingen","pos": {"lat": 46.873356,"lng": 7.55944}},"arrival": {"time": 1629997680,"schedule_time": 1629997680,"track": "","schedule_track": "","valid": true,"reason": "SCHEDULE"},"departure": {"time": 1629997740,"schedule_time": 1629997740,"track": "","schedule_track": "","valid": true,"reason": "SCHEDULE"},"exit": false,"enter": false},{"station": {"id": "8507000:0:3","name": "Bern","pos": {"lat": 46.948833,"lng": 7.439129}},"arrival": {"time": 1629998460,"schedule_time": 1629998460,"track": "","schedule_track": "","valid": true,"reason": "SCHEDULE"},"departure": {"time": 1629998460,"schedule_time": 1629998460,"track": "","schedule_track": "","valid": true,"reason": "SCHEDULE"},"exit": true,"enter": false},{"station": {"id": "8507785P","name": "Hauptbahnhof","pos": {"lat": 46.949001,"lng": 7.438527}},"arrival": {"time": 1629998580,"schedule_time": 1629998580,"track": "","schedule_track": "","valid": true,"reason": "SCHEDULE"},"departure": {"time": 1629998580,"schedule_time": 1629998580,"track": "","schedule_track": "","valid": true,"reason": "SCHEDULE"},"exit": false,"enter": false},{"station": {"id": "8507000:0:7","name": "Bern","pos": {"lat": 46.948833,"lng": 7.439129}},"arrival": {"time": 1629998700,"schedule_time": 1629998700,"track": "","schedule_track": "","valid": true,"reason": "SCHEDULE"},"departure": {"time": 1629999060,"schedule_time": 1629999060,"track": "","schedule_track": "","valid": true,"reason": "SCHEDULE"},"exit": false,"enter": true},{"station": {"id": "8503000:0:12","name": "Z\u00FCrich HB","pos": {"lat": 47.378174,"lng": 8.540212}},"arrival": {"time": 1630002480,"schedule_time": 1630002480,"track": "","schedule_track": "","valid": true,"reason": "SCHEDULE"},"departure": {"time": 1630002480,"schedule_time": 1630002480,"track": "","schedule_track": "","valid": true,"reason": "SCHEDULE"},"exit": true,"enter": false},{"station": {"id": "8503000P","name": "Z\u00FCrich HB","pos": {"lat": 47.378174,"lng": 8.540212}},"arrival": {"time": 1630002600,"schedule_time": 1630002600,"track": "","schedule_track": "","valid": true,"reason": "SCHEDULE"},"departure": {"time": 1630002600,"schedule_time": 1630002600,"track": "","schedule_track": "","valid": true,"reason": "SCHEDULE"},"exit": false,"enter": false},{"station": {"id": "8503000:0:43/44","name": "Z\u00FCrich HB","pos": {"lat": 47.378174,"lng": 8.540212}},"arrival": {"time": 1630002720,"schedule_time": 1630002720,"track": "","schedule_track": "","valid": true,"reason": "SCHEDULE"},"departure": {"time": 1630003140,"schedule_time": 1630003140,"track": "","schedule_track": "","valid": true,"reason": "SCHEDULE"},"exit": false,"enter": true},{"station": {"id": "8503003:0:3","name": "Z\u00FCrich Stadelhofen","pos": {"lat": 47.366611,"lng": 8.548485}},"arrival": {"time": 1630003260,"schedule_time": 1630003260,"track": "","schedule_track": "","valid": true,"reason": "SCHEDULE"},"departure": {"time": 1630003320,"schedule_time": 1630003320,"track": "","schedule_track": "","valid": true,"reason": "SCHEDULE"},"exit": false,"enter": false},{"station": {"id": "8503125:0:2","name": "Uster","pos": {"lat": 47.350368,"lng": 8.718707}},"arrival": {"time": 1630003980,"schedule_time": 1630003980,"track": "","schedule_track": "","valid": true,"reason": "SCHEDULE"},"departure": {"time": 1630004040,"schedule_time": 1630004040,"track": "","schedule_track": "","valid": true,"reason": "SCHEDULE"},"exit": false,"enter": false},{"station": {"id": "8503123:0:3","name": "Wetzikon","pos": {"lat": 47.318024,"lng": 8.792288}},"arrival": {"time": 1630004400,"schedule_time": 1630004400,"track": "","schedule_track": "","valid": true,"reason": "SCHEDULE"},"departure": {"time": 1630004400,"schedule_time": 1630004400,"track": "","schedule_track": "","valid": true,"reason": "SCHEDULE"},"exit": true,"enter": false},{"station": {"id": "8503123P","name": "Wetzikon","pos": {"lat": 47.318024,"lng": 8.792288}},"arrival": {"time": 1630004520,"schedule_time": 1630004520,"track": "","schedule_track": "","valid": true,"reason": "SCHEDULE"},"departure": {"time": 1630004520,"schedule_time": 1630004520,"track": "","schedule_track": "","valid": true,"reason": "SCHEDULE"},"exit": false,"enter": false},{"station": {"id": "8576105","name": "Wetzikon ZH, Bahnhof","pos": {"lat": 47.31855,"lng": 8.791623}},"arrival": {"time": 1630004640,"schedule_time": 1630004640,"track": "","schedule_track": "","valid": true,"reason": "SCHEDULE"},"departure": {"time": 1630005540,"schedule_time": 1630005540,"track": "","schedule_track": "","valid": true,"reason": "SCHEDULE"},"exit": false,"enter": true},{"station": {"id": "8587957","name": "Wetzikon ZH, Stadion","pos": {"lat": 47.31422,"lng": 8.799357}},"arrival": {"time": 1630005600,"schedule_time": 1630005600,"track": "","schedule_track": "","valid": true,"reason": "SCHEDULE"},"departure": {"time": 1630005600,"schedule_time": 1630005600,"track": "","schedule_track": "","valid": true,"reason": "SCHEDULE"},"exit": false,"enter": false},{"station": {"id": "8576008","name": "Hinwil, Bossikon","pos": {"lat": 47.30896,"lng": 8.813425}},"arrival": {"time": 1630005660,"schedule_time": 1630005660,"track": "","schedule_track": "","valid": true,"reason": "SCHEDULE"},"departure": {"time": 1630005660,"schedule_time": 1630005660,"track": "","schedule_track": "","valid": true,"reason": "SCHEDULE"},"exit": false,"enter": false},{"station": {"id": "8587939","name": "Hinwil, Hinwil Center West","pos": {"lat": 47.306519,"lng": 8.817216}},"arrival": {"time": 1630005780,"schedule_time": 1630005780,"track": "","schedule_track": "","valid": true,"reason": "SCHEDULE"},"departure": {"time": 1630005780,"schedule_time": 1630005780,"track": "","schedule_track": "","valid": true,"reason": "SCHEDULE"},"exit": false,"enter": false},{"station": {"id": "8576009","name": "Hinwil, Hinwil Center Ost","pos": {"lat": 47.305405,"lng": 8.820109}},"arrival": {"time": 1630005840,"schedule_time": 1630005840,"track": "","schedule_track": "","valid": true,"reason": "SCHEDULE"},"departure": {"time": 1630005840,"schedule_time": 1630005840,"track": "","schedule_track": "","valid": true,"reason": "SCHEDULE"},"exit": false,"enter": false},{"station": {"id": "8576010","name": "Hinwil, W\u00E4sseristrasse","pos": {"lat": 47.304466,"lng": 8.824169}},"arrival": {"time": 1630005900,"schedule_time": 1630005900,"track": "","schedule_track": "","valid": true,"reason": "SCHEDULE"},"departure": {"time": 1630005900,"schedule_time": 1630005900,"track": "","schedule_track": "","valid": true,"reason": "SCHEDULE"},"exit": false,"enter": false},{"station": {"id": "8576011","name": "Hinwil, Industriestrasse","pos": {"lat": 47.304119,"lng": 8.828553}},"arrival": {"time": 1630005960,"schedule_time": 1630005960,"track": "","schedule_track": "","valid": true,"reason": "SCHEDULE"},"departure": {"time": 0,"schedule_time": 0,"track": "","schedule_track": "","valid": false,"reason": "SCHEDULE"},"exit": true,"enter": false}],"transports": [{"move_type": "Transport","move": {"range": {"from": 0,"to": 6},"category_name": "Bus","category_id": 3,"clasz": 10,"train_nr": 18138,"line_id": "181","name": "Bus 181","provider": "PostAuto AG","direction": "Gstaad, Bahnhof"}},{"move_type": "Walk","move": {"range": {"from": 6,"to": 7},"mumo_id": -1,"price": 0,"accessibility": 0,"mumo_type": ""}},{"move_type": "Walk","move": {"range": {"from": 7,"to": 8},"mumo_id": -1,"price": 0,"accessibility": 0,"mumo_type": ""}},{"move_type": "Transport","move": {"range": {"from": 8,"to": 13},"category_name": "Tourist Railway","category_id": 36,"clasz": 6,"train_nr": 2226,"line_id": "PE","name": "PE","provider": "Montreux-Oberland Bernois","direction": "Zweisimmen"}},{"move_type": "Walk","move": {"range": {"from": 13,"to": 14},"mumo_id": -1,"price": 0,"accessibility": 0,"mumo_type": ""}},{"move_type": "Walk","move": {"range": {"from": 14,"to": 15},"mumo_id": -1,"price": 0,"accessibility": 0,"mumo_type": ""}},{"move_type": "Transport","move": {"range": {"from": 15,"to": 28},"category_name": "Regional Rail","category_id": 5,"clasz": 6,"train_nr": 6832,"line_id": "R","name": "R","provider": "BLS AG (bls)","direction": "Spiez"}},{"move_type": "Transport","move": {"range": {"from": 28,"to": 31},"category_name": "Regional Rail","category_id": 5,"clasz": 6,"train_nr": 4180,"line_id": "RE","name": "RE","provider": "BLS AG (bls)","direction": "Bern"}},{"move_type": "Walk","move": {"range": {"from": 31,"to": 32},"mumo_id": -1,"price": 0,"accessibility": 0,"mumo_type": ""}},{"move_type": "Walk","move": {"range": {"from": 32,"to": 33},"mumo_id": -1,"price": 0,"accessibility": 0,"mumo_type": ""}},{"move_type": "Transport","move": {"range": {"from": 33,"to": 34},"category_name": "IC1","category_id": 20,"clasz": 12,"train_nr": 731,"line_id": "IC1","name": "IC1 731","provider": "Schweizerische Bundesbahnen SBB","direction": "Z\u00FCrich HB"}},{"move_type": "Walk","move": {"range": {"from": 34,"to": 35},"mumo_id": -1,"price": 0,"accessibility": 0,"mumo_type": ""}},{"move_type": "Walk","move": {"range": {"from": 35,"to": 36},"mumo_id": -1,"price": 0,"accessibility": 0,"mumo_type": ""}},{"move_type": "Transport","move": {"range": {"from": 36,"to": 39},"category_name": "S","category_id": 0,"clasz": 7,"train_nr": 19579,"line_id": "S15","name": "S15","provider": "Schweizerische Bundesbahnen SBB","direction": "Rapperswil"}},{"move_type": "Walk","move": {"range": {"from": 39,"to": 40},"mumo_id": -1,"price": 0,"accessibility": 0,"mumo_type": ""}},{"move_type": "Walk","move": {"range": {"from": 40,"to": 41},"mumo_id": -1,"price": 0,"accessibility": 0,"mumo_type": ""}},{"move_type": "Transport","move": {"range": {"from": 41,"to": 47},"category_name": "Bus","category_id": 3,"clasz": 10,"train_nr": 69519,"line_id": "869","name": "Bus 869","provider": "Verkehrsbetriebe Z\u00FCrichsee und Oberland","direction": "Hinwil, Bahnhof"}}],"trips": [{"range": {"from": 0,"to": 6},"id": {"station_id": "8501581","train_nr": 18138,"time": 1629988800,"target_station_id": "8571264","target_time": 1629991020,"line_id": "181"},"debug": "48.TA.96-841-j21-1.4.R:1296158:1296158"},{"range": {"from": 8,"to": 13},"id": {"station_id": "8501300:0:5","train_nr": 2226,"time": 1629985800,"target_station_id": "8507290:0:5","target_time": 1629993420,"line_id": "PE"},"debug": "12.TA.91-30-Y-j21-1.1.H:76400:76400"},{"range": {"from": 15,"to": 28},"id": {"station_id": "8507290:0:6","train_nr": 6832,"time": 1629993720,"target_station_id": "8507483:0:5","target_time": 1629996420,"line_id": "R"},"debug": "88.TA.91-2L-Y-j21-1.10.H:74292:74292"},{"range": {"from": 28,"to": 31},"id": {"station_id": "8507483:0:5","train_nr": 4180,"time": 1629996600,"target_station_id": "8507000:0:3","target_time": 1629998460,"line_id": "RE"},"debug": "43.TA.91-37-Y-j21-1.13.H:80594:80594"},{"range": {"from": 33,"to": 34},"id": {"station_id": "8501026:0:4","train_nr": 731,"time": 1629991920,"target_station_id": "8503000:0:12","target_time": 1630002480,"line_id": "IC1"},"debug": "397.TA.91-1-F-j21-1.179.H:56179:56179"},{"range": {"from": 36,"to": 39},"id": {"station_id": "8503319:0:1","train_nr": 19579,"time": 1630001040,"target_station_id": "8503110:0:3","target_time": 1630005360,"line_id": "S15"},"debug": "153.TA.91-S15-Z-j21-1.49.H:208707:208707"},{"range": {"from": 41,"to": 47},"id": {"station_id": "8576105","train_nr": 69519,"time": 1630005540,"target_station_id": "8576104","target_time": 1630006200,"line_id": "869"},"debug": "21.TA.92-869-j21-1.2.H:626146:626146"}],"attributes": [],"free_texts": [],"problems": [],"night_penalty": 0,"max_occupancy": 2,"db_costs": 0,"status": "OK"},{"stops": [{"station": {"id": "8571284","name": "Gstaad, Trom","pos": {"lat": 46.458988,"lng": 7.305119}},"arrival": {"time": 0,"schedule_time": 0,"track": "","schedule_track": "","valid": false,"reason": "SCHEDULE"},"departure": {"time": 1629990240,"schedule_time": 1629990240,"track": "","schedule_track": "","valid": true,"reason": "SCHEDULE"},"exit": false,"enter": true},{"station": {"id": "8571283","name": "Gstaad, Badweidli","pos": {"lat": 46.466015,"lng": 7.297194}},"arrival": {"time": 1629990360,"schedule_time": 1629990360,"track": "","schedule_track": "","valid": true,"reason": "SCHEDULE"},"departure": {"time": 1629990360,"schedule_time": 1629990360,"track": "","schedule_track": "","valid": true,"reason": "SCHEDULE"},"exit": false,"enter": false},{"station": {"id": "8571282","name": "Gstaad, Krambr\u00FCcke","pos": {"lat": 46.470066,"lng": 7.293304}},"arrival": {"time": 1629990420,"schedule_time": 1629990420,"track": "","schedule_track": "","valid": true,"reason": "SCHEDULE"},"departure": {"time": 1629990420,"schedule_time": 1629990420,"track": "","schedule_track": "","valid": true,"reason": "SCHEDULE"},"exit": false,"enter": false},{"station": {"id": "8581189","name": "Gstaad, Ober-Gstaad","pos": {"lat": 46.472008,"lng": 7.287115}},"arrival": {"time": 1629990480,"schedule_time": 1629990480,"track": "","schedule_track": "","valid": true,"reason": "SCHEDULE"},"departure": {"time": 1629990480,"schedule_time": 1629990480,"track": "","schedule_track": "","valid": true,"reason": "SCHEDULE"},"exit": false,"enter": false},{"station": {"id": "8581187","name": "Gstaad, Sportzentrum","pos": {"lat": 46.471184,"lng": 7.283495}},"arrival": {"time": 1629990480,"schedule_time": 1629990480,"track": "","schedule_track": "","valid": true,"reason": "SCHEDULE"},"departure": {"time": 1629990480,"schedule_time": 1629990480,"track": "","schedule_track": "","valid": true,"reason": "SCHEDULE"},"exit": false,"enter": false},{"station": {"id": "8581360","name": "Gstaad, Unter-Gstaad","pos": {"lat": 46.477917,"lng": 7.282498}},"arrival": {"time": 1629990540,"schedule_time": 1629990540,"track": "","schedule_track": "","valid": true,"reason": "SCHEDULE"},"departure": {"time": 1629990540,"schedule_time": 1629990540,"track": "","schedule_track": "","valid": true,"reason": "SCHEDULE"},"exit": false,"enter": false},{"station": {"id": "8571264","name": "Gstaad, Bahnhof","pos": {"lat": 46.475536,"lng": 7.283701}},"arrival": {"time": 1629991020,"schedule_time": 1629991020,"track": "","schedule_track": "","valid": true,"reason": "SCHEDULE"},"departure": {"time": 1629991020,"schedule_time": 1629991020,"track": "","schedule_track": "","valid": true,"reason": "SCHEDULE"},"exit": true,"enter": false},{"station": {"id": "8501399P","name": "Gstaad","pos": {"lat": 46.474804,"lng": 7.284411}},"arrival": {"time": 1629991140,"schedule_time": 1629991140,"track": "","schedule_track": "","valid": true,"reason": "SCHEDULE"},"departure": {"time": 1629991140,"schedule_time": 1629991140,"track": "","schedule_track": "","valid": true,"reason": "SCHEDULE"},"exit": false,"enter": false},{"station": {"id": "8501399:0:1","name": "Gstaad","pos": {"lat": 46.474804,"lng": 7.284411}},"arrival": {"time": 1629991260,"schedule_time": 1629991260,"track": "","schedule_track": "","valid": true,"reason": "SCHEDULE"},"departure": {"time": 1629991500,"schedule_time": 1629991500,"track": "","schedule_track": "","valid": true,"reason": "SCHEDULE"},"exit": false,"enter": true},{"station": {"id": "8507270:0:2","name": "Gruben","pos": {"lat": 46.49054,"lng": 7.280127}},"arrival": {"time": 1629991740,"schedule_time": 1629991740,"track": "","schedule_track": "","valid": true,"reason": "SCHEDULE"},"departure": {"time": 1629991740,"schedule_time": 1629991740,"track": "","schedule_track": "","valid": true,"reason": "SCHEDULE"},"exit": false,"enter": false},{"station": {"id": "8507271","name": "Sch\u00F6nried","pos": {"lat": 46.504539,"lng": 7.291104}},"arrival": {"time": 1629992040,"schedule_time": 1629992040,"track": "","schedule_track": "","valid": true,"reason": "SCHEDULE"},"departure": {"time": 1629992040,"schedule_time": 1629992040,"track": "","schedule_track": "","valid": true,"reason": "SCHEDULE"},"exit": false,"enter": false},{"station": {"id": "8507272:0:2","name": "Saanenm\u00F6ser","pos": {"lat": 46.517605,"lng": 7.311721}},"arrival": {"time": 1629992400,"schedule_time": 1629992400,"track": "","schedule_track": "","valid": true,"reason": "SCHEDULE"},"departure": {"time": 1629992400,"schedule_time": 1629992400,"track": "","schedule_track": "","valid": true,"reason": "SCHEDULE"},"exit": false,"enter": false},{"station": {"id": "8507273","name": "Oeschseite","pos": {"lat": 46.531368,"lng": 7.352289}},"arrival": {"time": 1629992760,"schedule_time": 1629992760,"track": "","schedule_track": "","valid": true,"reason": "SCHEDULE"},"departure": {"time": 1629992760,"schedule_time": 1629992760,"track": "","schedule_track": "","valid": true,"reason": "SCHEDULE"},"exit": false,"enter": false},{"station": {"id": "8507290:0:5","name": "Zweisimmen","pos": {"lat": 46.553478,"lng": 7.374864}},"arrival": {"time": 1629993420,"schedule_time": 1629993420,"track": "","schedule_track": "","valid": true,"reason": "SCHEDULE"},"departure": {"time": 1629993420,"schedule_time": 1629993420,"track": "","schedule_track": "","valid": true,"reason": "SCHEDULE"},"exit": true,"enter": false},{"station": {"id": "8507290P","name": "Zweisimmen","pos": {"lat": 46.553478,"lng": 7.374864}},"arrival": {"time": 1629993540,"schedule_time": 1629993540,"track": "","schedule_track": "","valid": true,"reason": "SCHEDULE"},"departure": {"time": 1629993540,"schedule_time": 1629993540,"track": "","schedule_track": "","valid": true,"reason": "SCHEDULE"},"exit": false,"enter": false},{"station": {"id": "8507290:0:6","name": "Zweisimmen","pos": {"lat": 46.553478,"lng": 7.374864}},"arrival": {"time": 1629993660,"schedule_time": 1629993660,"track": "","schedule_track": "","valid": true,"reason": "SCHEDULE"},"departure": {"time": 1630000920,"schedule_time": 1630000920,"track": "","schedule_track": "","valid": true,"reason": "SCHEDULE"},"exit": false,"enter": true},{"station": {"id": "8507281","name": "Grubenwald","pos": {"lat": 46.579807,"lng": 7.382966}},"arrival": {"time": 1630001100,"schedule_time": 1630001100,"track": "","schedule_track": "","valid": true,"reason": "SCHEDULE"},"departure": {"time": 1630001100,"schedule_time": 1630001100,"track": "","schedule_track": "","valid": true,"reason": "SCHEDULE"},"exit": false,"enter": false},{"station": {"id": "8507291:0:2","name": "Weissenbach","pos": {"lat": 46.603561,"lng": 7.374298}},"arrival": {"time": 1630001280,"schedule_time": 1630001280,"track": "","schedule_track": "","valid": true,"reason": "SCHEDULE"},"departure": {"time": 1630001280,"schedule_time": 1630001280,"track": "","schedule_track": "","valid": true,"reason": "SCHEDULE"},"exit": false,"enter": false},{"station": {"id": "8507292:0:1","name": "Boltigen","pos": {"lat": 46.627369,"lng": 7.390072}},"arrival": {"time": 1630001520,"schedule_time": 1630001520,"track": "","schedule_track": "","valid": true,"reason": "SCHEDULE"},"departure": {"time": 1630001520,"schedule_time": 1630001520,"track": "","schedule_track": "","valid": true,"reason": "SCHEDULE"},"exit": false,"enter": false},{"station": {"id": "8507284:0:1","name": "Enge im Simmental","pos": {"lat": 46.647533,"lng": 7.417623}},"arrival": {"time": 1630001700,"schedule_time": 1630001700,"track": "","schedule_track": "","valid": true,"reason": "SCHEDULE"},"departure": {"time": 1630001700,"schedule_time": 1630001700,"track": "","schedule_track": "","valid": true,"reason": "SCHEDULE"},"exit": false,"enter": false},{"station": {"id": "8507293:0:1","name": "Oberwil im Simmental","pos": {"lat": 46.656132,"lng": 7.435482}},"arrival": {"time": 1630001880,"schedule_time": 1630001880,"track": "","schedule_track": "","valid": true,"reason": "SCHEDULE"},"departure": {"time": 1630001880,"schedule_time": 1630001880,"track": "","schedule_track": "","valid": true,"reason": "SCHEDULE"},"exit": false,"enter": false},{"station": {"id": "8507294:0:1","name": "Weissenburg","pos": {"lat": 46.659294,"lng": 7.475924}},"arrival": {"time": 1630002060,"schedule_time": 1630002060,"track": "","schedule_track": "","valid": true,"reason": "SCHEDULE"},"departure": {"time": 1630002060,"schedule_time": 1630002060,"track": "","schedule_track": "","valid": true,"reason": "SCHEDULE"},"exit": false,"enter": false},{"station": {"id": "8507295:0:2","name": "D\u00E4rstetten","pos": {"lat": 46.658718,"lng": 7.495696}},"arrival": {"time": 1630002240,"schedule_time": 1630002240,"track": "","schedule_track": "","valid": true,"reason": "SCHEDULE"},"departure": {"time": 1630002240,"schedule_time": 1630002240,"track": "","schedule_track": "","valid": true,"reason": "SCHEDULE"},"exit": false,"enter": false},{"station": {"id": "8507286:0:1","name": "Ringoldingen","pos": {"lat": 46.657555,"lng": 7.524577}},"arrival": {"time": 1630002420,"schedule_time": 1630002420,"track": "","schedule_track": "","valid": true,"reason": "SCHEDULE"},"departure": {"time": 1630002420,"schedule_time": 1630002420,"track": "","schedule_track": "","valid": true,"reason": "SCHEDULE"},"exit": false,"enter": false},{"station": {"id": "8507296:0:2","name": "Erlenbach im Simmental","pos": {"lat": 46.659092,"lng": 7.555235}},"arrival": {"time": 1630002660,"schedule_time": 1630002660,"track": "","schedule_track": "","valid": true,"reason": "SCHEDULE"},"departure": {"time": 1630002660,"schedule_time": 1630002660,"track": "","schedule_track": "","valid": true,"reason": "SCHEDULE"},"exit": false,"enter": false},{"station": {"id": "8507297:0:1","name": "Oey-Diemtigen","pos": {"lat": 46.659885,"lng": 7.579149}},"arrival": {"time": 1630002780,"schedule_time": 1630002780,"track": "","schedule_track": "","valid": true,"reason": "SCHEDULE"},"departure": {"time": 1630002780,"schedule_time": 1630002780,"track": "","schedule_track": "","valid": true,"reason": "SCHEDULE"},"exit": false,"enter": false},{"station": {"id": "8507287:0:1","name": "Burgholz","pos": {"lat": 46.666473,"lng": 7.605424}},"arrival": {"time": 1630002960,"schedule_time": 1630002960,"track": "","schedule_track": "","valid": true,"reason": "SCHEDULE"},"departure": {"time": 1630002960,"schedule_time": 1630002960,"track": "","schedule_track": "","valid": true,"reason": "SCHEDULE"},"exit": false,"enter": false},{"station": {"id": "8507298:0:1","name": "Wimmis","pos": {"lat": 46.67572,"lng": 7.6356}},"arrival": {"time": 1630003200,"schedule_time": 1630003200,"track": "","schedule_track": "","valid": true,"reason": "SCHEDULE"},"departure": {"time": 1630003200,"schedule_time": 1630003200,"track": "","schedule_track": "","valid": true,"reason": "SCHEDULE"},"exit": false,"enter": false},{"station": {"id": "8507288:0:1","name": "Eifeld","pos": {"lat": 46.683868,"lng": 7.642273}},"arrival": {"time": 1630003260,"schedule_time": 1630003260,"track": "","schedule_track": "","valid": true,"reason": "SCHEDULE"},"departure": {"time": 1630003260,"schedule_time": 1630003260,"track": "","schedule_track": "","valid": true,"reason": "SCHEDULE"},"exit": false,"enter": false},{"station": {"id": "8507299:0:1","name": "Lattigen bei Spiez","pos": {"lat": 46.691135,"lng": 7.650269}},"arrival": {"time": 1630003380,"schedule_time": 1630003380,"track": "","schedule_track": "","valid": true,"reason": "SCHEDULE"},"departure": {"time": 1630003380,"schedule_time": 1630003380,"track": "","schedule_track": "","valid": true,"reason": "SCHEDULE"},"exit": false,"enter": false},{"station": {"id": "8507483:0:5","name": "Spiez","pos": {"lat": 46.686398,"lng": 7.680101}},"arrival": {"time": 1630003620,"schedule_time": 1630003620,"track": "","schedule_track": "","valid": true,"reason": "SCHEDULE"},"departure": {"time": 1630003620,"schedule_time": 1630003620,"track": "","schedule_track": "","valid": true,"reason": "SCHEDULE"},"exit": true,"enter": false},{"station": {"id": "8576333P","name": "Bahnhof","pos": {"lat": 46.686184,"lng": 7.680398}},"arrival": {"time": 1630003740,"schedule_time": 1630003740,"track": "","schedule_track": "","valid": true,"reason": "SCHEDULE"},"departure": {"time": 1630003740,"schedule_time": 1630003740,"track": "","schedule_track": "","valid": true,"reason": "SCHEDULE"},"exit": false,"enter": false},{"station": {"id": "8507483:0:3","name": "Spiez","pos": {"lat": 46.686398,"lng": 7.680101}},"arrival": {"time": 1630003860,"schedule_time": 1630003860,"track": "","schedule_track": "","valid": true,"reason": "SCHEDULE"},"departure": {"time": 1630004040,"schedule_time": 1630004040,"track": "","schedule_track": "","valid": true,"reason": "SCHEDULE"},"exit": false,"enter": true},{"station": {"id": "8507100:0:2","name": "Thun","pos": {"lat": 46.754852,"lng": 7.629607}},"arrival": {"time": 1630004580,"schedule_time": 1630004580,"track": "","schedule_track": "","valid": true,"reason": "SCHEDULE"},"departure": {"time": 1630004640,"schedule_time": 1630004640,"track": "","schedule_track": "","valid": true,"reason": "SCHEDULE"},"exit": false,"enter": false},{"station": {"id": "8507000:0:4","name": "Bern","pos": {"lat": 46.948833,"lng": 7.439129}},"arrival": {"time": 1630005840,"schedule_time": 1630005840,"track": "","schedule_track": "","valid": true,"reason": "SCHEDULE"},"departure": {"time": 1630005840,"schedule_time": 1630005840,"track": "","schedule_track": "","valid": true,"reason": "SCHEDULE"},"exit": true,"enter": false},{"station": {"id": "8507785P","name": "Hauptbahnhof","pos": {"lat": 46.949001,"lng": 7.438527}},"arrival": {"time": 1630005960,"schedule_time": 1630005960,"track": "","schedule_track": "","valid": true,"reason": "SCHEDULE"},"departure": {"time": 1630005960,"schedule_time": 1630005960,"track": "","schedule_track": "","valid": true,"reason": "SCHEDULE"},"exit": false,"enter": false},{"station": {"id": "8507000:0:7","name": "Bern","pos": {"lat": 46.948833,"lng": 7.439129}},"arrival": {"time": 1630006080,"schedule_time": 1630006080,"track": "","schedule_track": "","valid": true,"reason": "SCHEDULE"},"departure": {"time": 1630006260,"schedule_time": 1630006260,"track": "","schedule_track": "","valid": true,"reason": "SCHEDULE"},"exit": false,"enter": true},{"station": {"id": "8500218:0:7","name": "Olten","pos": {"lat": 47.351933,"lng": 7.907699}},"arrival": {"time": 1630007820,"schedule_time": 1630007820,"track": "","schedule_track": "","valid": true,"reason": "SCHEDULE"},"departure": {"time": 1630008000,"schedule_time": 1630008000,"track": "","schedule_track": "","valid": true,"reason": "SCHEDULE"},"exit": false,"enter": false},{"station": {"id": "8503000:0:33","name": "Z\u00FCrich HB","pos": {"lat": 47.378174,"lng": 8.540212}},"arrival": {"time": 1630009860,"schedule_time": 1630009860,"track": "","schedule_track": "","valid": true,"reason": "SCHEDULE"},"departure": {"time": 1630009860,"schedule_time": 1630009860,"track": "","schedule_track": "","valid": true,"reason": "SCHEDULE"},"exit": true,"enter": false},{"station": {"id": "8503000P","name": "Z\u00FCrich HB","pos": {"lat": 47.378174,"lng": 8.540212}},"arrival": {"time": 1630009980,"schedule_time": 1630009980,"track": "","schedule_track": "","valid": true,"reason": "SCHEDULE"},"departure": {"time": 1630009980,"schedule_time": 1630009980,"track": "","schedule_track": "","valid": true,"reason": "SCHEDULE"},"exit": false,"enter": false},{"station": {"id": "8503000:0:43/44","name": "Z\u00FCrich HB","pos": {"lat": 47.378174,"lng": 8.540212}},"arrival": {"time": 1630010100,"schedule_time": 1630010100,"track": "","schedule_track": "","valid": true,"reason": "SCHEDULE"},"departure": {"time": 1630010340,"schedule_time": 1630010340,"track": "","schedule_track": "","valid": true,"reason": "SCHEDULE"},"exit": false,"enter": true},{"station": {"id": "8503003:0:3","name": "Z\u00FCrich Stadelhofen","pos": {"lat": 47.366611,"lng": 8.548485}},"arrival": {"time": 1630010460,"schedule_time": 1630010460,"track": "","schedule_track": "","valid": true,"reason": "SCHEDULE"},"departure": {"time": 1630010520,"schedule_time": 1630010520,"track": "","schedule_track": "","valid": true,"reason": "SCHEDULE"},"exit": false,"enter": false},{"station": {"id": "8503125:0:2","name": "Uster","pos": {"lat": 47.350368,"lng": 8.718707}},"arrival": {"time": 1630011180,"schedule_time": 1630011180,"track": "","schedule_track": "","valid": true,"reason": "SCHEDULE"},"departure": {"time": 1630011240,"schedule_time": 1630011240,"track": "","schedule_track": "","valid": true,"reason": "SCHEDULE"},"exit": false,"enter": false},{"station": {"id": "8503123:0:3","name": "Wetzikon","pos": {"lat": 47.318024,"lng": 8.792288}},"arrival": {"time": 1630011600,"schedule_time": 1630011600,"track": "","schedule_track": "","valid": true,"reason": "SCHEDULE"},"departure": {"time": 1630011600,"schedule_time": 1630011600,"track": "","schedule_track": "","valid": true,"reason": "SCHEDULE"},"exit": true,"enter": false},{"station": {"id": "8503123P","name": "Wetzikon","pos": {"lat": 47.318024,"lng": 8.792288}},"arrival": {"time": 1630011720,"schedule_time": 1630011720,"track": "","schedule_track": "","valid": true,"reason": "SCHEDULE"},"departure": {"time": 1630011720,"schedule_time": 1630011720,"track": "","schedule_track": "","valid": true,"reason": "SCHEDULE"},"exit": false,"enter": false},{"station": {"id": "8576105","name": "Wetzikon ZH, Bahnhof","pos": {"lat": 47.31855,"lng": 8.791623}},"arrival": {"time": 1630011840,"schedule_time": 1630011840,"track": "","schedule_track": "","valid": true,"reason": "SCHEDULE"},"departure": {"time": 1630036140,"schedule_time": 1630036140,"track": "","schedule_track": "","valid": true,"reason": "SCHEDULE"},"exit": false,"enter": true},{"station": {"id": "8587957","name": "Wetzikon ZH, Stadion","pos": {"lat": 47.31422,"lng": 8.799357}},"arrival": {"time": 1630036200,"schedule_time": 1630036200,"track": "","schedule_track": "","valid": true,"reason": "SCHEDULE"},"departure": {"time": 1630036200,"schedule_time": 1630036200,"track": "","schedule_track": "","valid": true,"reason": "SCHEDULE"},"exit": false,"enter": false},{"station": {"id": "8576008","name": "Hinwil, Bossikon","pos": {"lat": 47.30896,"lng": 8.813425}},"arrival": {"time": 1630036260,"schedule_time": 1630036260,"track": "","schedule_track": "","valid": true,"reason": "SCHEDULE"},"departure": {"time": 1630036260,"schedule_time": 1630036260,"track": "","schedule_track": "","valid": true,"reason": "SCHEDULE"},"exit": false,"enter": false},{"station": {"id": "8587939","name": "Hinwil, Hinwil Center West","pos": {"lat": 47.306519,"lng": 8.817216}},"arrival": {"time": 1630036380,"schedule_time": 1630036380,"track": "","schedule_track": "","valid": true,"reason": "SCHEDULE"},"departure": {"time": 1630036380,"schedule_time": 1630036380,"track": "","schedule_track": "","valid": true,"reason": "SCHEDULE"},"exit": false,"enter": false},{"station": {"id": "8576009","name": "Hinwil, Hinwil Center Ost","pos": {"lat": 47.305405,"lng": 8.820109}},"arrival": {"time": 1630036440,"schedule_time": 1630036440,"track": "","schedule_track": "","valid": true,"reason": "SCHEDULE"},"departure": {"time": 1630036440,"schedule_time": 1630036440,"track": "","schedule_track": "","valid": true,"reason": "SCHEDULE"},"exit": false,"enter": false},{"station": {"id": "8576010","name": "Hinwil, W\u00E4sseristrasse","pos": {"lat": 47.304466,"lng": 8.824169}},"arrival": {"time": 1630036500,"schedule_time": 1630036500,"track": "","schedule_track": "","valid": true,"reason": "SCHEDULE"},"departure": {"time": 1630036500,"schedule_time": 1630036500,"track": "","schedule_track": "","valid": true,"reason": "SCHEDULE"},"exit": false,"enter": false},{"station": {"id": "8576011","name": "Hinwil, Industriestrasse","pos": {"lat": 47.304119,"lng": 8.828553}},"arrival": {"time": 1630036560,"schedule_time": 1630036560,"track": "","schedule_track": "","valid": true,"reason": "SCHEDULE"},"departure": {"time": 0,"schedule_time": 0,"track": "","schedule_track": "","valid": false,"reason": "SCHEDULE"},"exit": true,"enter": false}],"transports": [{"move_type": "Transport","move": {"range": {"from": 0,"to": 6},"category_name": "Bus","category_id": 3,"clasz": 10,"train_nr": 18138,"line_id": "181","name": "Bus 181","provider": "PostAuto AG","direction": "Gstaad, Bahnhof"}},{"move_type": "Walk","move": {"range": {"from": 6,"to": 7},"mumo_id": -1,"price": 0,"accessibility": 0,"mumo_type": ""}},{"move_type": "Walk","move": {"range": {"from": 7,"to": 8},"mumo_id": -1,"price": 0,"accessibility": 0,"mumo_type": ""}},{"move_type": "Transport","move": {"range": {"from": 8,"to": 13},"category_name": "Tourist Railway","category_id": 36,"clasz": 6,"train_nr": 2226,"line_id": "PE","name": "PE","provider": "Montreux-Oberland Bernois","direction": "Zweisimmen"}},{"move_type": "Walk","move": {"range": {"from": 13,"to": 14},"mumo_id": -1,"price": 0,"accessibility": 0,"mumo_type": ""}},{"move_type": "Walk","move": {"range": {"from": 14,"to": 15},"mumo_id": -1,"price": 0,"accessibility": 0,"mumo_type": ""}},{"move_type": "Transport","move": {"range": {"from": 15,"to": 30},"category_name": "Regional Rail","category_id": 5,"clasz": 6,"train_nr": 6836,"line_id": "R","name": "R","provider": "BLS AG (bls)","direction": "Spiez"}},{"move_type": "Walk","move": {"range": {"from": 30,"to": 31},"mumo_id": -1,"price": 0,"accessibility": 0,"mumo_type": ""}},{"move_type": "Walk","move": {"range": {"from": 31,"to": 32},"mumo_id": -1,"price": 0,"accessibility": 0,"mumo_type": ""}},{"move_type": "Transport","move": {"range": {"from": 32,"to": 34},"category_name": "EC","category_id": 24,"clasz": 2,"train_nr": 56,"line_id": "EC","name": "EC 56","provider": "Schweizerische Bundesbahnen SBB","direction": "Basel SBB"}},{"move_type": "Walk","move": {"range": {"from": 34,"to": 35},"mumo_id": -1,"price": 0,"accessibility": 0,"mumo_type": ""}},{"move_type": "Walk","move": {"range": {"from": 35,"to": 36},"mumo_id": -1,"price": 0,"accessibility": 0,"mumo_type": ""}},{"move_type": "Transport","move": {"range": {"from": 36,"to": 38},"category_name": "IC1","category_id": 20,"clasz": 12,"train_nr": 735,"line_id": "IC1","name": "IC1 735","provider": "Schweizerische Bundesbahnen SBB","direction": "St. Gallen"}},{"move_type": "Walk","move": {"range": {"from": 38,"to": 39},"mumo_id": -1,"price": 0,"accessibility": 0,"mumo_type": ""}},{"move_type": "Walk","move": {"range": {"from": 39,"to": 40},"mumo_id": -1,"price": 0,"accessibility": 0,"mumo_type": ""}},{"move_type": "Transport","move": {"range": {"from": 40,"to": 43},"category_name": "S","category_id": 0,"clasz": 7,"train_nr": 19587,"line_id": "S15","name": "S15","provider": "Schweizerische Bundesbahnen SBB","direction": "Rapperswil"}},{"move_type": "Walk","move": {"range": {"from": 43,"to": 44},"mumo_id": -1,"price": 0,"accessibility": 0,"mumo_type": ""}},{"move_type": "Walk","move": {"range": {"from": 44,"to": 45},"mumo_id": -1,"price": 0,"accessibility": 0,"mumo_type": ""}},{"move_type": "Transport","move": {"range": {"from": 45,"to": 51},"category_name": "Bus","category_id": 3,"clasz": 10,"train_nr": 69051,"line_id": "869","name": "Bus 869","provider": "Verkehrsbetriebe Z\u00FCrichsee und Oberland","direction": "Hinwil, Bahnhof"}}],"trips": [{"range": {"from": 0,"to": 6},"id": {"station_id": "8501581","train_nr": 18138,"time": 1629988800,"target_station_id": "8571264","target_time": 1629991020,"line_id": "181"},"debug": "48.TA.96-841-j21-1.4.R:1296158:1296158"},{"range": {"from": 8,"to": 13},"id": {"station_id": "8501300:0:5","train_nr": 2226,"time": 1629985800,"target_station_id": "8507290:0:5","target_time": 1629993420,"line_id": "PE"},"debug": "12.TA.91-30-Y-j21-1.1.H:76400:76400"},{"range": {"from": 15,"to": 30},"id": {"station_id": "8507290:0:6","train_nr": 6836,"time": 1630000920,"target_station_id": "8507483:0:5","target_time": 1630003620,"line_id": "R"},"debug": "127.TA.91-2L-Y-j21-1.30.H:74058:74058"},{"range": {"from": 32,"to": 34},"id": {"station_id": "8301003","train_nr": 56,"time": 1630000080,"target_station_id": "8500010:0:12","target_time": 1630009920,"line_id": "EC"},"debug": "13.TA.91-EH-Y-j21-1.9.H:153945:153945"},{"range": {"from": 36,"to": 38},"id": {"station_id": "8501026:0:4","train_nr": 735,"time": 1629999120,"target_station_id": "8506302:0:1","target_time": 1630014720,"line_id": "IC1"},"debug": "1079.TA.91-1-F-j21-1.392.H:55293:55293"},{"range": {"from": 40,"to": 43},"id": {"station_id": "8503319:0:1","train_nr": 19587,"time": 1630008240,"target_station_id": "8503110:0:3","target_time": 1630012560,"line_id": "S15"},"debug": "105.TA.91-S15-Z-j21-1.35.H:208654:208654"},{"range": {"from": 45,"to": 51},"id": {"station_id": "8576105","train_nr": 69051,"time": 1630036140,"target_station_id": "8576104","target_time": 1630036800,"line_id": "869"},"debug": "19.TA.92-869-j21-1.2.H:626143:626143"}],"attributes": [],"free_texts": [],"problems": [],"night_penalty": 0,"max_occupancy": 1,"db_costs": 0,"status": "OK"},{"stops": [{"station": {"id": "8571284","name": "Gstaad, Trom","pos": {"lat": 46.458988,"lng": 7.305119}},"arrival": {"time": 0,"schedule_time": 0,"track": "","schedule_track": "","valid": false,"reason": "SCHEDULE"},"departure": {"time": 1629990240,"schedule_time": 1629990240,"track": "","schedule_track": "","valid": true,"reason": "SCHEDULE"},"exit": false,"enter": true},{"station": {"id": "8571283","name": "Gstaad, Badweidli","pos": {"lat": 46.466015,"lng": 7.297194}},"arrival": {"time": 1629990360,"schedule_time": 1629990360,"track": "","schedule_track": "","valid": true,"reason": "SCHEDULE"},"departure": {"time": 1629990360,"schedule_time": 1629990360,"track": "","schedule_track": "","valid": true,"reason": "SCHEDULE"},"exit": false,"enter": false},{"station": {"id": "8571282","name": "Gstaad, Krambr\u00FCcke","pos": {"lat": 46.470066,"lng": 7.293304}},"arrival": {"time": 1629990420,"schedule_time": 1629990420,"track": "","schedule_track": "","valid": true,"reason": "SCHEDULE"},"departure": {"time": 1629990420,"schedule_time": 1629990420,"track": "","schedule_track": "","valid": true,"reason": "SCHEDULE"},"exit": false,"enter": false},{"station": {"id": "8581189","name": "Gstaad, Ober-Gstaad","pos": {"lat": 46.472008,"lng": 7.287115}},"arrival": {"time": 1629990480,"schedule_time": 1629990480,"track": "","schedule_track": "","valid": true,"reason": "SCHEDULE"},"departure": {"time": 1629990480,"schedule_time": 1629990480,"track": "","schedule_track": "","valid": true,"reason": "SCHEDULE"},"exit": false,"enter": false},{"station": {"id": "8581187","name": "Gstaad, Sportzentrum","pos": {"lat": 46.471184,"lng": 7.283495}},"arrival": {"time": 1629990480,"schedule_time": 1629990480,"track": "","schedule_track": "","valid": true,"reason": "SCHEDULE"},"departure": {"time": 1629990480,"schedule_time": 1629990480,"track": "","schedule_track": "","valid": true,"reason": "SCHEDULE"},"exit": false,"enter": false},{"station": {"id": "8581360","name": "Gstaad, Unter-Gstaad","pos": {"lat": 46.477917,"lng": 7.282498}},"arrival": {"time": 1629990540,"schedule_time": 1629990540,"track": "","schedule_track": "","valid": true,"reason": "SCHEDULE"},"departure": {"time": 1629990540,"schedule_time": 1629990540,"track": "","schedule_track": "","valid": true,"reason": "SCHEDULE"},"exit": false,"enter": false},{"station": {"id": "8571264","name": "Gstaad, Bahnhof","pos": {"lat": 46.475536,"lng": 7.283701}},"arrival": {"time": 1629991020,"schedule_time": 1629991020,"track": "","schedule_track": "","valid": true,"reason": "SCHEDULE"},"departure": {"time": 1629991020,"schedule_time": 1629991020,"track": "","schedule_track": "","valid": true,"reason": "SCHEDULE"},"exit": true,"enter": false},{"station": {"id": "8501399P","name": "Gstaad","pos": {"lat": 46.474804,"lng": 7.284411}},"arrival": {"time": 1629991140,"schedule_time": 1629991140,"track": "","schedule_track": "","valid": true,"reason": "SCHEDULE"},"departure": {"time": 1629991140,"schedule_time": 1629991140,"track": "","schedule_track": "","valid": true,"reason": "SCHEDULE"},"exit": false,"enter": false},{"station": {"id": "8501399:0:1","name": "Gstaad","pos": {"lat": 46.474804,"lng": 7.284411}},"arrival": {"time": 1629991260,"schedule_time": 1629991260,"track": "","schedule_track": "","valid": true,"reason": "SCHEDULE"},"departure": {"time": 1629991500,"schedule_time": 1629991500,"track": "","schedule_track": "","valid": true,"reason": "SCHEDULE"},"exit": false,"enter": true},{"station": {"id": "8507270:0:2","name": "Gruben","pos": {"lat": 46.49054,"lng": 7.280127}},"arrival": {"time": 1629991740,"schedule_time": 1629991740,"track": "","schedule_track": "","valid": true,"reason": "SCHEDULE"},"departure": {"time": 1629991740,"schedule_time": 1629991740,"track": "","schedule_track": "","valid": true,"reason": "SCHEDULE"},"exit": false,"enter": false},{"station": {"id": "8507271","name": "Sch\u00F6nried","pos": {"lat": 46.504539,"lng": 7.291104}},"arrival": {"time": 1629992040,"schedule_time": 1629992040,"track": "","schedule_track": "","valid": true,"reason": "SCHEDULE"},"departure": {"time": 1629992040,"schedule_time": 1629992040,"track": "","schedule_track": "","valid": true,"reason": "SCHEDULE"},"exit": false,"enter": false},{"station": {"id": "8507272:0:2","name": "Saanenm\u00F6ser","pos": {"lat": 46.517605,"lng": 7.311721}},"arrival": {"time": 1629992400,"schedule_time": 1629992400,"track": "","schedule_track": "","valid": true,"reason": "SCHEDULE"},"departure": {"time": 1629992400,"schedule_time": 1629992400,"track": "","schedule_track": "","valid": true,"reason": "SCHEDULE"},"exit": false,"enter": false},{"station": {"id": "8507273","name": "Oeschseite","pos": {"lat": 46.531368,"lng": 7.352289}},"arrival": {"time": 1629992760,"schedule_time": 1629992760,"track": "","schedule_track": "","valid": true,"reason": "SCHEDULE"},"departure": {"time": 1629992760,"schedule_time": 1629992760,"track": "","schedule_track": "","valid": true,"reason": "SCHEDULE"},"exit": false,"enter": false},{"station": {"id": "8507290:0:5","name": "Zweisimmen","pos": {"lat": 46.553478,"lng": 7.374864}},"arrival": {"time": 1629993420,"schedule_time": 1629993420,"track": "","schedule_track": "","valid": true,"reason": "SCHEDULE"},"departure": {"time": 1629993420,"schedule_time": 1629993420,"track": "","schedule_track": "","valid": true,"reason": "SCHEDULE"},"exit": true,"enter": false},{"station": {"id": "8507290P","name": "Zweisimmen","pos": {"lat": 46.553478,"lng": 7.374864}},"arrival": {"time": 1629993540,"schedule_time": 1629993540,"track": "","schedule_track": "","valid": true,"reason": "SCHEDULE"},"departure": {"time": 1629993540,"schedule_time": 1629993540,"track": "","schedule_track": "","valid": true,"reason": "SCHEDULE"},"exit": false,"enter": false},{"station": {"id": "8507290:0:6","name": "Zweisimmen","pos": {"lat": 46.553478,"lng": 7.374864}},"arrival": {"time": 1629993660,"schedule_time": 1629993660,"track": "","schedule_track": "","valid": true,"reason": "SCHEDULE"},"departure": {"time": 1629993720,"schedule_time": 1629993720,"track": "","schedule_track": "","valid": true,"reason": "SCHEDULE"},"exit": false,"enter": true},{"station": {"id": "8507292:0:1","name": "Boltigen","pos": {"lat": 46.627369,"lng": 7.390072}},"arrival": {"time": 1629994200,"schedule_time": 1629994200,"track": "","schedule_track": "","valid": true,"reason": "SCHEDULE"},"departure": {"time": 1629994260,"schedule_time": 1629994260,"track": "","schedule_track": "","valid": true,"reason": "SCHEDULE"},"exit": false,"enter": false},{"station": {"id": "8507284:0:1","name": "Enge im Simmental","pos": {"lat": 46.647533,"lng": 7.417623}},"arrival": {"time": 1629994440,"schedule_time": 1629994440,"track": "","schedule_track": "","valid": true,"reason": "SCHEDULE"},"departure": {"time": 1629994440,"schedule_time": 1629994440,"track": "","schedule_track": "","valid": true,"reason": "SCHEDULE"},"exit": false,"enter": false},{"station": {"id": "8507293:0:1","name": "Oberwil im Simmental","pos": {"lat": 46.656132,"lng": 7.435482}},"arrival": {"time": 1629994620,"schedule_time": 1629994620,"track": "","schedule_track": "","valid": true,"reason": "SCHEDULE"},"departure": {"time": 1629994620,"schedule_time": 1629994620,"track": "","schedule_track": "","valid": true,"reason": "SCHEDULE"},"exit": false,"enter": false},{"station": {"id": "8507294:0:1","name": "Weissenburg","pos": {"lat": 46.659294,"lng": 7.475924}},"arrival": {"time": 1629994800,"schedule_time": 1629994800,"track": "","schedule_track": "","valid": true,"reason": "SCHEDULE"},"departure": {"time": 1629994800,"schedule_time": 1629994800,"track": "","schedule_track": "","valid": true,"reason": "SCHEDULE"},"exit": false,"enter": false},{"station": {"id": "8507295:0:2","name": "D\u00E4rstetten","pos": {"lat": 46.658718,"lng": 7.495696}},"arrival": {"time": 1629994980,"schedule_time": 1629994980,"track": "","schedule_track": "","valid": true,"reason": "SCHEDULE"},"departure": {"time": 1629994980,"schedule_time": 1629994980,"track": "","schedule_track": "","valid": true,"reason": "SCHEDULE"},"exit": false,"enter": false},{"station": {"id": "8507286:0:1","name": "Ringoldingen","pos": {"lat": 46.657555,"lng": 7.524577}},"arrival": {"time": 1629995160,"schedule_time": 1629995160,"track": "","schedule_track": "","valid": true,"reason": "SCHEDULE"},"departure": {"time": 1629995160,"schedule_time": 1629995160,"track": "","schedule_track": "","valid": true,"reason": "SCHEDULE"},"exit": false,"enter": false},{"station": {"id": "8507296:0:2","name": "Erlenbach im Simmental","pos": {"lat": 46.659092,"lng": 7.555235}},"arrival": {"time": 1629995400,"schedule_time": 1629995400,"track": "","schedule_track": "","valid": true,"reason": "SCHEDULE"},"departure": {"time": 1629995400,"schedule_time": 1629995400,"track": "","schedule_track": "","valid": true,"reason": "SCHEDULE"},"exit": false,"enter": false},{"station": {"id": "8507297:0:1","name": "Oey-Diemtigen","pos": {"lat": 46.659885,"lng": 7.579149}},"arrival": {"time": 1629995580,"schedule_time": 1629995580,"track": "","schedule_track": "","valid": true,"reason": "SCHEDULE"},"departure": {"time": 1629995640,"schedule_time": 1629995640,"track": "","schedule_track": "","valid": true,"reason": "SCHEDULE"},"exit": false,"enter": false},{"station": {"id": "8507287:0:1","name": "Burgholz","pos": {"lat": 46.666473,"lng": 7.605424}},"arrival": {"time": 1629995760,"schedule_time": 1629995760,"track": "","schedule_track": "","valid": true,"reason": "SCHEDULE"},"departure": {"time": 1629995760,"schedule_time": 1629995760,"track": "","schedule_track": "","valid": true,"reason": "SCHEDULE"},"exit": false,"enter": false},{"station": {"id": "8507298:0:1","name": "Wimmis","pos": {"lat": 46.67572,"lng": 7.6356}},"arrival": {"time": 1629996000,"schedule_time": 1629996000,"track": "","schedule_track": "","valid": true,"reason": "SCHEDULE"},"departure": {"time": 1629996000,"schedule_time": 1629996000,"track": "","schedule_track": "","valid": true,"reason": "SCHEDULE"},"exit": false,"enter": false},{"station": {"id": "8507288:0:1","name": "Eifeld","pos": {"lat": 46.683868,"lng": 7.642273}},"arrival": {"time": 1629996060,"schedule_time": 1629996060,"track": "","schedule_track": "","valid": true,"reason": "SCHEDULE"},"departure": {"time": 1629996060,"schedule_time": 1629996060,"track": "","schedule_track": "","valid": true,"reason": "SCHEDULE"},"exit": false,"enter": false},{"station": {"id": "8507299:0:1","name": "Lattigen bei Spiez","pos": {"lat": 46.691135,"lng": 7.650269}},"arrival": {"time": 1629996180,"schedule_time": 1629996180,"track": "","schedule_track": "","valid": true,"reason": "SCHEDULE"},"departure": {"time": 1629996180,"schedule_time": 1629996180,"track": "","schedule_track": "","valid": true,"reason": "SCHEDULE"},"exit": false,"enter": false},{"station": {"id": "8507483:0:5","name": "Spiez","pos": {"lat": 46.686398,"lng": 7.680101}},"arrival": {"time": 1629996420,"schedule_time": 1629996420,"track": "","schedule_track": "","valid": true,"reason": "SCHEDULE"},"departure": {"time": 1629996420,"schedule_time": 1629996420,"track": "","schedule_track": "","valid": true,"reason": "SCHEDULE"},"exit": true,"enter": false},{"station": {"id": "8576333P","name": "Bahnhof","pos": {"lat": 46.686184,"lng": 7.680398}},"arrival": {"time": 1629996540,"schedule_time": 1629996540,"track": "","schedule_track": "","valid": true,"reason": "SCHEDULE"},"departure": {"time": 1629996540,"schedule_time": 1629996540,"track": "","schedule_track": "","valid": true,"reason": "SCHEDULE"},"exit": false,"enter": false},{"station": {"id": "8507483:0:4","name": "Spiez","pos": {"lat": 46.686398,"lng": 7.680101}},"arrival": {"time": 1629996660,"schedule_time": 1629996660,"track": "","schedule_track": "","valid": true,"reason": "SCHEDULE"},"departure": {"time": 1629998580,"schedule_time": 1629998580,"track": "","schedule_track": "","valid": true,"reason": "SCHEDULE"},"exit": false,"enter": true},{"station": {"id": "8507100:0:2","name": "Thun","pos": {"lat": 46.754852,"lng": 7.629607}},"arrival": {"time": 1629999240,"schedule_time": 1629999240,"track": "","schedule_track": "","valid": true,"reason": "SCHEDULE"},"departure": {"time": 1629999240,"schedule_time": 1629999240,"track": "","schedule_track": "","valid": true,"reason": "SCHEDULE"},"exit": false,"enter": false},{"station": {"id": "8507000:0:1","name": "Bern","pos": {"lat": 46.948833,"lng": 7.439129}},"arrival": {"time": 1630000440,"schedule_time": 1630000440,"track": "","schedule_track": "","valid": true,"reason": "SCHEDULE"},"departure": {"time": 1630000920,"schedule_time": 1630000920,"track": "","schedule_track": "","valid": true,"reason": "SCHEDULE"},"exit": false,"enter": false},{"station": {"id": "8503000:0:33","name": "Z\u00FCrich HB","pos": {"lat": 47.378174,"lng": 8.540212}},"arrival": {"time": 1630004280,"schedule_time": 1630004280,"track": "","schedule_track": "","valid": true,"reason": "SCHEDULE"},"departure": {"time": 1630004280,"schedule_time": 1630004280,"track": "","schedule_track": "","valid": true,"reason": "SCHEDULE"},"exit": true,"enter": false},{"station": {"id": "8503000P","name": "Z\u00FCrich HB","pos": {"lat": 47.378174,"lng": 8.540212}},"arrival": {"time": 1630004400,"schedule_time": 1630004400,"track": "","schedule_track": "","valid": true,"reason": "SCHEDULE"},"departure": {"time": 1630004400,"schedule_time": 1630004400,"track": "","schedule_track": "","valid": true,"reason": "SCHEDULE"},"exit": false,"enter": false},{"station": {"id": "8503000:0:43/44","name": "Z\u00FCrich HB","pos": {"lat": 47.378174,"lng": 8.540212}},"arrival": {"time": 1630004520,"schedule_time": 1630004520,"track": "","schedule_track": "","valid": true,"reason": "SCHEDULE"},"departure": {"time": 1630004940,"schedule_time": 1630004940,"track": "","schedule_track": "","valid": true,"reason": "SCHEDULE"},"exit": false,"enter": true},{"station": {"id": "8503003:0:3","name": "Z\u00FCrich Stadelhofen","pos": {"lat": 47.366611,"lng": 8.548485}},"arrival": {"time": 1630005060,"schedule_time": 1630005060,"track": "","schedule_track": "","valid": true,"reason": "SCHEDULE"},"departure": {"time": 1630005120,"schedule_time": 1630005120,"track": "","schedule_track": "","valid": true,"reason": "SCHEDULE"},"exit": false,"enter": false},{"station": {"id": "8503125:0:2","name": "Uster","pos": {"lat": 47.350368,"lng": 8.718707}},"arrival": {"time": 1630005780,"schedule_time": 1630005780,"track": "","schedule_track": "","valid": true,"reason": "SCHEDULE"},"departure": {"time": 1630005840,"schedule_time": 1630005840,"track": "","schedule_track": "","valid": true,"reason": "SCHEDULE"},"exit": false,"enter": false},{"station": {"id": "8503123:0:3","name": "Wetzikon","pos": {"lat": 47.318024,"lng": 8.792288}},"arrival": {"time": 1630006200,"schedule_time": 1630006200,"track": "","schedule_track": "","valid": true,"reason": "SCHEDULE"},"departure": {"time": 1630006200,"schedule_time": 1630006200,"track": "","schedule_track": "","valid": true,"reason": "SCHEDULE"},"exit": true,"enter": false},{"station": {"id": "8503123P","name": "Wetzikon","pos": {"lat": 47.318024,"lng": 8.792288}},"arrival": {"time": 1630006320,"schedule_time": 1630006320,"track": "","schedule_track": "","valid": true,"reason": "SCHEDULE"},"departure": {"time": 1630006320,"schedule_time": 1630006320,"track": "","schedule_track": "","valid": true,"reason": "SCHEDULE"},"exit": false,"enter": false},{"station": {"id": "8576105","name": "Wetzikon ZH, Bahnhof","pos": {"lat": 47.31855,"lng": 8.791623}},"arrival": {"time": 1630006440,"schedule_time": 1630006440,"track": "","schedule_track": "","valid": true,"reason": "SCHEDULE"},"departure": {"time": 1630036140,"schedule_time": 1630036140,"track": "","schedule_track": "","valid": true,"reason": "SCHEDULE"},"exit": false,"enter": true},{"station": {"id": "8587957","name": "Wetzikon ZH, Stadion","pos": {"lat": 47.31422,"lng": 8.799357}},"arrival": {"time": 1630036200,"schedule_time": 1630036200,"track": "","schedule_track": "","valid": true,"reason": "SCHEDULE"},"departure": {"time": 1630036200,"schedule_time": 1630036200,"track": "","schedule_track": "","valid": true,"reason": "SCHEDULE"},"exit": false,"enter": false},{"station": {"id": "8576008","name": "Hinwil, Bossikon","pos": {"lat": 47.30896,"lng": 8.813425}},"arrival": {"time": 1630036260,"schedule_time": 1630036260,"track": "","schedule_track": "","valid": true,"reason": "SCHEDULE"},"departure": {"time": 1630036260,"schedule_time": 1630036260,"track": "","schedule_track": "","valid": true,"reason": "SCHEDULE"},"exit": false,"enter": false},{"station": {"id": "8587939","name": "Hinwil, Hinwil Center West","pos": {"lat": 47.306519,"lng": 8.817216}},"arrival": {"time": 1630036380,"schedule_time": 1630036380,"track": "","schedule_track": "","valid": true,"reason": "SCHEDULE"},"departure": {"time": 1630036380,"schedule_time": 1630036380,"track": "","schedule_track": "","valid": true,"reason": "SCHEDULE"},"exit": false,"enter": false},{"station": {"id": "8576009","name": "Hinwil, Hinwil Center Ost","pos": {"lat": 47.305405,"lng": 8.820109}},"arrival": {"time": 1630036440,"schedule_time": 1630036440,"track": "","schedule_track": "","valid": true,"reason": "SCHEDULE"},"departure": {"time": 1630036440,"schedule_time": 1630036440,"track": "","schedule_track": "","valid": true,"reason": "SCHEDULE"},"exit": false,"enter": false},{"station": {"id": "8576010","name": "Hinwil, W\u00E4sseristrasse","pos": {"lat": 47.304466,"lng": 8.824169}},"arrival": {"time": 1630036500,"schedule_time": 1630036500,"track": "","schedule_track": "","valid": true,"reason": "SCHEDULE"},"departure": {"time": 1630036500,"schedule_time": 1630036500,"track": "","schedule_track": "","valid": true,"reason": "SCHEDULE"},"exit": false,"enter": false},{"station": {"id": "8576011","name": "Hinwil, Industriestrasse","pos": {"lat": 47.304119,"lng": 8.828553}},"arrival": {"time": 1630036560,"schedule_time": 1630036560,"track": "","schedule_track": "","valid": true,"reason": "SCHEDULE"},"departure": {"time": 0,"schedule_time": 0,"track": "","schedule_track": "","valid": false,"reason": "SCHEDULE"},"exit": true,"enter": false}],"transports": [{"move_type": "Transport","move": {"range": {"from": 0,"to": 6},"category_name": "Bus","category_id": 3,"clasz": 10,"train_nr": 18138,"line_id": "181","name": "Bus 181","provider": "PostAuto AG","direction": "Gstaad, Bahnhof"}},{"move_type": "Walk","move": {"range": {"from": 6,"to": 7},"mumo_id": -1,"price": 0,"accessibility": 0,"mumo_type": ""}},{"move_type": "Walk","move": {"range": {"from": 7,"to": 8},"mumo_id": -1,"price": 0,"accessibility": 0,"mumo_type": ""}},{"move_type": "Transport","move": {"range": {"from": 8,"to": 13},"category_name": "Tourist Railway","category_id": 36,"clasz": 6,"train_nr": 2226,"line_id": "PE","name": "PE","provider": "Montreux-Oberland Bernois","direction": "Zweisimmen"}},{"move_type": "Walk","move": {"range": {"from": 13,"to": 14},"mumo_id": -1,"price": 0,"accessibility": 0,"mumo_type": ""}},{"move_type": "Walk","move": {"range": {"from": 14,"to": 15},"mumo_id": -1,"price": 0,"accessibility": 0,"mumo_type": ""}},{"move_type": "Transport","move": {"range": {"from": 15,"to": 28},"category_name": "Regional Rail","category_id": 5,"clasz": 6,"train_nr": 6832,"line_id": "R","name": "R","provider": "BLS AG (bls)","direction": "Spiez"}},{"move_type": "Walk","move": {"range": {"from": 28,"to": 29},"mumo_id": -1,"price": 0,"accessibility": 0,"mumo_type": ""}},{"move_type": "Walk","move": {"range": {"from": 29,"to": 30},"mumo_id": -1,"price": 0,"accessibility": 0,"mumo_type": ""}},{"move_type": "Transport","move": {"range": {"from": 30,"to": 33},"category_name": "IC8","category_id": 1,"clasz": 12,"train_nr": 833,"line_id": "IC8","name": "IC8 833","provider": "Schweizerische Bundesbahnen SBB","direction": "Romanshorn"}},{"move_type": "Walk","move": {"range": {"from": 33,"to": 34},"mumo_id": -1,"price": 0,"accessibility": 0,"mumo_type": ""}},{"move_type": "Walk","move": {"range": {"from": 34,"to": 35},"mumo_id": -1,"price": 0,"accessibility": 0,"mumo_type": ""}},{"move_type": "Transport","move": {"range": {"from": 35,"to": 38},"category_name": "S","category_id": 0,"clasz": 7,"train_nr": 19581,"line_id": "S15","name": "S15","provider": "Schweizerische Bundesbahnen SBB","direction": "Rapperswil"}},{"move_type": "Walk","move": {"range": {"from": 38,"to": 39},"mumo_id": -1,"price": 0,"accessibility": 0,"mumo_type": ""}},{"move_type": "Walk","move": {"range": {"from": 39,"to": 40},"mumo_id": -1,"price": 0,"accessibility": 0,"mumo_type": ""}},{"move_type": "Transport","move": {"range": {"from": 40,"to": 46},"category_name": "Bus","category_id": 3,"clasz": 10,"train_nr": 69051,"line_id": "869","name": "Bus 869","provider": "Verkehrsbetriebe Z\u00FCrichsee und Oberland","direction": "Hinwil, Bahnhof"}}],"trips": [{"range": {"from": 0,"to": 6},"id": {"station_id": "8501581","train_nr": 18138,"time": 1629988800,"target_station_id": "8571264","target_time": 1629991020,"line_id": "181"},"debug": "48.TA.96-841-j21-1.4.R:1296158:1296158"},{"range": {"from": 8,"to": 13},"id": {"station_id": "8501300:0:5","train_nr": 2226,"time": 1629985800,"target_station_id": "8507290:0:5","target_time": 1629993420,"line_id": "PE"},"debug": "12.TA.91-30-Y-j21-1.1.H:76400:76400"},{"range": {"from": 15,"to": 28},"id": {"station_id": "8507290:0:6","train_nr": 6832,"time": 1629993720,"target_station_id": "8507483:0:5","target_time": 1629996420,"line_id": "R"},"debug": "88.TA.91-2L-Y-j21-1.10.H:74292:74292"},{"range": {"from": 30,"to": 33},"id": {"station_id": "8501609:0:3","train_nr": 833,"time": 1629996480,"target_station_id": "8506121:0:3","target_time": 1630008720,"line_id": "IC8"},"debug": "520.TA.91-8-E-j21-1.272.H:132535:132535"},{"range": {"from": 35,"to": 38},"id": {"station_id": "8503319:0:1","train_nr": 19581,"time": 1630002840,"target_station_id": "8503110:0:3","target_time": 1630007160,"line_id": "S15"},"debug": "143.TA.91-S15-Z-j21-1.49.H:208696:208696"},{"range": {"from": 40,"to": 46},"id": {"station_id": "8576105","train_nr": 69051,"time": 1630036140,"target_station_id": "8576104","target_time": 1630036800,"line_id": "869"},"debug": "19.TA.92-869-j21-1.2.H:626143:626143"}],"attributes": [],"free_texts": [],"problems": [],"night_penalty": 0,"max_occupancy": 2,"db_costs": 0,"status": "OK"},{"stops": [{"station": {"id": "8571284","name": "Gstaad, Trom","pos": {"lat": 46.458988,"lng": 7.305119}},"arrival": {"time": 0,"schedule_time": 0,"track": "","schedule_track": "","valid": false,"reason": "SCHEDULE"},"departure": {"time": 1629990240,"schedule_time": 1629990240,"track": "","schedule_track": "","valid": true,"reason": "SCHEDULE"},"exit": false,"enter": true},{"station": {"id": "8571283","name": "Gstaad, Badweidli","pos": {"lat": 46.466015,"lng": 7.297194}},"arrival": {"time": 1629990360,"schedule_time": 1629990360,"track": "","schedule_track": "","valid": true,"reason": "SCHEDULE"},"departure": {"time": 1629990360,"schedule_time": 1629990360,"track": "","schedule_track": "","valid": true,"reason": "SCHEDULE"},"exit": false,"enter": false},{"station": {"id": "8571282","name": "Gstaad, Krambr\u00FCcke","pos": {"lat": 46.470066,"lng": 7.293304}},"arrival": {"time": 1629990420,"schedule_time": 1629990420,"track": "","schedule_track": "","valid": true,"reason": "SCHEDULE"},"departure": {"time": 1629990420,"schedule_time": 1629990420,"track": "","schedule_track": "","valid": true,"reason": "SCHEDULE"},"exit": false,"enter": false},{"station": {"id": "8581189","name": "Gstaad, Ober-Gstaad","pos": {"lat": 46.472008,"lng": 7.287115}},"arrival": {"time": 1629990480,"schedule_time": 1629990480,"track": "","schedule_track": "","valid": true,"reason": "SCHEDULE"},"departure": {"time": 1629990480,"schedule_time": 1629990480,"track": "","schedule_track": "","valid": true,"reason": "SCHEDULE"},"exit": false,"enter": false},{"station": {"id": "8581187","name": "Gstaad, Sportzentrum","pos": {"lat": 46.471184,"lng": 7.283495}},"arrival": {"time": 1629990480,"schedule_time": 1629990480,"track": "","schedule_track": "","valid": true,"reason": "SCHEDULE"},"departure": {"time": 1629990480,"schedule_time": 1629990480,"track": "","schedule_track": "","valid": true,"reason": "SCHEDULE"},"exit": false,"enter": false},{"station": {"id": "8581360","name": "Gstaad, Unter-Gstaad","pos": {"lat": 46.477917,"lng": 7.282498}},"arrival": {"time": 1629990540,"schedule_time": 1629990540,"track": "","schedule_track": "","valid": true,"reason": "SCHEDULE"},"departure": {"time": 1629990540,"schedule_time": 1629990540,"track": "","schedule_track": "","valid": true,"reason": "SCHEDULE"},"exit": false,"enter": false},{"station": {"id": "8571264","name": "Gstaad, Bahnhof","pos": {"lat": 46.475536,"lng": 7.283701}},"arrival": {"time": 1629991020,"schedule_time": 1629991020,"track": "","schedule_track": "","valid": true,"reason": "SCHEDULE"},"departure": {"time": 1629991020,"schedule_time": 1629991020,"track": "","schedule_track": "","valid": true,"reason": "SCHEDULE"},"exit": true,"enter": false},{"station": {"id": "8501399P","name": "Gstaad","pos": {"lat": 46.474804,"lng": 7.284411}},"arrival": {"time": 1629991140,"schedule_time": 1629991140,"track": "","schedule_track": "","valid": true,"reason": "SCHEDULE"},"departure": {"time": 1629991140,"schedule_time": 1629991140,"track": "","schedule_track": "","valid": true,"reason": "SCHEDULE"},"exit": false,"enter": false},{"station": {"id": "8501399:0:2","name": "Gstaad","pos": {"lat": 46.474804,"lng": 7.284411}},"arrival": {"time": 1629991260,"schedule_time": 1629991260,"track": "","schedule_track": "","valid": true,"reason": "SCHEDULE"},"departure": {"time": 1630006500,"schedule_time": 1630006500,"track": "","schedule_track": "","valid": true,"reason": "SCHEDULE"},"exit": false,"enter": true},{"station": {"id": "8501398","name": "Saanen","pos": {"lat": 46.488575,"lng": 7.260273}},"arrival": {"time": 1630006740,"schedule_time": 1630006740,"track": "","schedule_track": "","valid": true,"reason": "SCHEDULE"},"departure": {"time": 1630006740,"schedule_time": 1630006740,"track": "","schedule_track": "","valid": true,"reason": "SCHEDULE"},"exit": false,"enter": false},{"station": {"id": "8501397","name": "Rougemont","pos": {"lat": 46.488625,"lng": 7.208961}},"arrival": {"time": 1630007040,"schedule_time": 1630007040,"track": "","schedule_track": "","valid": true,"reason": "SCHEDULE"},"departure": {"time": 1630007040,"schedule_time": 1630007040,"track": "","schedule_track": "","valid": true,"reason": "SCHEDULE"},"exit": false,"enter": false},{"station": {"id": "8501396","name": "Flendruz","pos": {"lat": 46.482094,"lng": 7.186073}},"arrival": {"time": 1630007160,"schedule_time": 1630007160,"track": "","schedule_track": "","valid": true,"reason": "SCHEDULE"},"departure": {"time": 1630007160,"schedule_time": 1630007160,"track": "","schedule_track": "","valid": true,"reason": "SCHEDULE"},"exit": false,"enter": false},{"station": {"id": "8501388","name": "Les Combes","pos": {"lat": 46.47747,"lng": 7.171826}},"arrival": {"time": 1630007280,"schedule_time": 1630007280,"track": "","schedule_track": "","valid": true,"reason": "SCHEDULE"},"departure": {"time": 1630007280,"schedule_time": 1630007280,"track": "","schedule_track": "","valid": true,"reason": "SCHEDULE"},"exit": false,"enter": false},{"station": {"id": "8501395","name": "Les Granges-G\u00E9rignoz","pos": {"lat": 46.474171,"lng": 7.154947}},"arrival": {"time": 1630007460,"schedule_time": 1630007460,"track": "","schedule_track": "","valid": true,"reason": "SCHEDULE"},"departure": {"time": 1630007460,"schedule_time": 1630007460,"track": "","schedule_track": "","valid": true,"reason": "SCHEDULE"},"exit": false,"enter": false},{"station": {"id": "8501198","name": "Ch\u00E2teau-d'Oex La Palaz","pos": {"lat": 46.475903,"lng": 7.143834}},"arrival": {"time": 1630007580,"schedule_time": 1630007580,"track": "","schedule_track": "","valid": true,"reason": "SCHEDULE"},"departure": {"time": 1630007580,"schedule_time": 1630007580,"track": "","schedule_track": "","valid": true,"reason": "SCHEDULE"},"exit": false,"enter": false},{"station": {"id": "8501394:0:1","name": "Ch\u00E2teau-d'Oex","pos": {"lat": 46.47467,"lng": 7.131411}},"arrival": {"time": 1630007940,"schedule_time": 1630007940,"track": "","schedule_track": "","valid": true,"reason": "SCHEDULE"},"departure": {"time": 1630008000,"schedule_time": 1630008000,"track": "","schedule_track": "","valid": true,"reason": "SCHEDULE"},"exit": false,"enter": false},{"station": {"id": "8501393","name": "La Chaudanne-Les Moulins","pos": {"lat": 46.466057,"lng": 7.096735}},"arrival": {"time": 1630008240,"schedule_time": 1630008240,"track": "","schedule_track": "","valid": true,"reason": "SCHEDULE"},"departure": {"time": 1630008240,"schedule_time": 1630008240,"track": "","schedule_track": "","valid": true,"reason": "SCHEDULE"},"exit": false,"enter": false},{"station": {"id": "8501392","name": "Rossini\u00E8re","pos": {"lat": 46.464817,"lng": 7.083242}},"arrival": {"time": 1630008300,"schedule_time": 1630008300,"track": "","schedule_track": "","valid": true,"reason": "SCHEDULE"},"departure": {"time": 1630008300,"schedule_time": 1630008300,"track": "","schedule_track": "","valid": true,"reason": "SCHEDULE"},"exit": false,"enter": false},{"station": {"id": "8501391","name": "La Tine","pos": {"lat": 46.467171,"lng": 7.046574}},"arrival": {"time": 1630008600,"schedule_time": 1630008600,"track": "","schedule_track": "","valid": true,"reason": "SCHEDULE"},"departure": {"time": 1630008600,"schedule_time": 1630008600,"track": "","schedule_track": "","valid": true,"reason": "SCHEDULE"},"exit": false,"enter": false},{"station": {"id": "8504070:0:2","name": "Montbovon","pos": {"lat": 46.485428,"lng": 7.042136}},"arrival": {"time": 1630008900,"schedule_time": 1630008900,"track": "","schedule_track": "","valid": true,"reason": "SCHEDULE"},"departure": {"time": 1630009020,"schedule_time": 1630009020,"track": "","schedule_track": "","valid": true,"reason": "SCHEDULE"},"exit": false,"enter": false},{"station": {"id": "8501379:0:1","name": "Les Sciernes","pos": {"lat": 46.491463,"lng": 7.034222}},"arrival": {"time": 1630009200,"schedule_time": 1630009200,"track": "","schedule_track": "","valid": true,"reason": "SCHEDULE"},"departure": {"time": 1630009200,"schedule_time": 1630009200,"track": "","schedule_track": "","valid": true,"reason": "SCHEDULE"},"exit": false,"enter": false},{"station": {"id": "8501378","name": "Alli\u00E8res","pos": {"lat": 46.469826,"lng": 7.007892}},"arrival": {"time": 1630009560,"schedule_time": 1630009560,"track": "","schedule_track": "","valid": true,"reason": "SCHEDULE"},"departure": {"time": 1630009560,"schedule_time": 1630009560,"track": "","schedule_track": "","valid": true,"reason": "SCHEDULE"},"exit": false,"enter": false},{"station": {"id": "8501387","name": "Les Cases","pos": {"lat": 46.455921,"lng": 6.997715}},"arrival": {"time": 1630009740,"schedule_time": 1630009740,"track": "","schedule_track": "","valid": true,"reason": "SCHEDULE"},"departure": {"time": 1630009740,"schedule_time": 1630009740,"track": "","schedule_track": "","valid": true,"reason": "SCHEDULE"},"exit": false,"enter": false},{"station": {"id": "8501386","name": "Jor","pos": {"lat": 46.45467,"lng": 6.965124}},"arrival": {"time": 1630009920,"schedule_time": 1630009920,"track": "","schedule_track": "","valid": true,"reason": "SCHEDULE"},"departure": {"time": 1630009920,"schedule_time": 1630009920,"track": "","schedule_track": "","valid": true,"reason": "SCHEDULE"},"exit": false,"enter": false},{"station": {"id": "8501377","name": "Les Avants","pos": {"lat": 46.453808,"lng": 6.943321}},"arrival": {"time": 1630010460,"schedule_time": 1630010460,"track": "","schedule_track": "","valid": true,"reason": "SCHEDULE"},"departure": {"time": 1630010580,"schedule_time": 1630010580,"track": "","schedule_track": "","valid": true,"reason": "SCHEDULE"},"exit": false,"enter": false},{"station": {"id": "8501385","name": "Sendy-Sollard","pos": {"lat": 46.44664,"lng": 6.929074}},"arrival": {"time": 1630010760,"schedule_time": 1630010760,"track": "","schedule_track": "","valid": true,"reason": "SCHEDULE"},"departure": {"time": 1630010760,"schedule_time": 1630010760,"track": "","schedule_track": "","valid": true,"reason": "SCHEDULE"},"exit": false,"enter": false},{"station": {"id": "8501376","name": "Chamby","pos": {"lat": 46.449177,"lng": 6.913498}},"arrival": {"time": 1630010940,"schedule_time": 1630010940,"track": "","schedule_track": "","valid": true,"reason": "SCHEDULE"},"departure": {"time": 1630010940,"schedule_time": 1630010940,"track": "","schedule_track": "","valid": true,"reason": "SCHEDULE"},"exit": false,"enter": false},{"station": {"id": "8501384","name": "Sonzier","pos": {"lat": 46.439053,"lng": 6.921214}},"arrival": {"time": 1630011180,"schedule_time": 1630011180,"track": "","schedule_track": "","valid": true,"reason": "SCHEDULE"},"departure": {"time": 1630011180,"schedule_time": 1630011180,"track": "","schedule_track": "","valid": true,"reason": "SCHEDULE"},"exit": false,"enter": false},{"station": {"id": "8501375","name": "Chernex","pos": {"lat": 46.445923,"lng": 6.910084}},"arrival": {"time": 1630011600,"schedule_time": 1630011600,"track": "","schedule_track": "","valid": true,"reason": "SCHEDULE"},"departure": {"time": 1630011600,"schedule_time": 1630011600,"track": "","schedule_track": "","valid": true,"reason": "SCHEDULE"},"exit": false,"enter": false},{"station": {"id": "8501374","name": "Fontanivent","pos": {"lat": 46.452732,"lng": 6.902331}},"arrival": {"time": 1630011720,"schedule_time": 1630011720,"track": "","schedule_track": "","valid": true,"reason": "SCHEDULE"},"departure": {"time": 1630011720,"schedule_time": 1630011720,"track": "","schedule_track": "","valid": true,"reason": "SCHEDULE"},"exit": false,"enter": false},{"station": {"id": "8501383","name": "Planchamp","pos": {"lat": 46.451176,"lng": 6.901001}},"arrival": {"time": 1630011780,"schedule_time": 1630011780,"track": "","schedule_track": "","valid": true,"reason": "SCHEDULE"},"departure": {"time": 1630011780,"schedule_time": 1630011780,"track": "","schedule_track": "","valid": true,"reason": "SCHEDULE"},"exit": false,"enter": false},{"station": {"id": "8501382","name": "Ch\u00E2telard VD","pos": {"lat": 46.446781,"lng": 6.901137}},"arrival": {"time": 1630011840,"schedule_time": 1630011840,"track": "","schedule_track": "","valid": true,"reason": "SCHEDULE"},"departure": {"time": 1630011840,"schedule_time": 1630011840,"track": "","schedule_track": "","valid": true,"reason": "SCHEDULE"},"exit": false,"enter": false},{"station": {"id": "8501390","name": "Belmont-sur-Montreux","pos": {"lat": 46.442043,"lng": 6.906122}},"arrival": {"time": 1630011900,"schedule_time": 1630011900,"track": "","schedule_track": "","valid": true,"reason": "SCHEDULE"},"departure": {"time": 1630011900,"schedule_time": 1630011900,"track": "","schedule_track": "","valid": true,"reason": "SCHEDULE"},"exit": false,"enter": false},{"station": {"id": "8501381","name": "Vuarennes","pos": {"lat": 46.439117,"lng": 6.910973}},"arrival": {"time": 1630011960,"schedule_time": 1630011960,"track": "","schedule_track": "","valid": true,"reason": "SCHEDULE"},"departure": {"time": 1630011960,"schedule_time": 1630011960,"track": "","schedule_track": "","valid": true,"reason": "SCHEDULE"},"exit": false,"enter": false},{"station": {"id": "8501380","name": "Montreux-Coll\u00E8ge","pos": {"lat": 46.4361,"lng": 6.912707}},"arrival": {"time": 1630011960,"schedule_time": 1630011960,"track": "","schedule_track": "","valid": true,"reason": "SCHEDULE"},"departure": {"time": 1630011960,"schedule_time": 1630011960,"track": "","schedule_track": "","valid": true,"reason": "SCHEDULE"},"exit": false,"enter": false},{"station": {"id": "8501300:0:6","name": "Montreux","pos": {"lat": 46.435886,"lng": 6.910443}},"arrival": {"time": 1630012320,"schedule_time": 1630012320,"track": "","schedule_track": "","valid": true,"reason": "SCHEDULE"},"departure": {"time": 1630012320,"schedule_time": 1630012320,"track": "","schedule_track": "","valid": true,"reason": "SCHEDULE"},"exit": true,"enter": false},{"station": {"id": "8501300P","name": "Montreux","pos": {"lat": 46.435886,"lng": 6.910443}},"arrival": {"time": 1630012440,"schedule_time": 1630012440,"track": "","schedule_track": "","valid": true,"reason": "SCHEDULE"},"departure": {"time": 1630012440,"schedule_time": 1630012440,"track": "","schedule_track": "","valid": true,"reason": "SCHEDULE"},"exit": false,"enter": false},{"station": {"id": "8501300:0:1","name": "Montreux","pos": {"lat": 46.435886,"lng": 6.910443}},"arrival": {"time": 1630012560,"schedule_time": 1630012560,"track": "","schedule_track": "","valid": true,"reason": "SCHEDULE"},"departure": {"time": 1630013340,"schedule_time": 1630013340,"track": "","schedule_track": "","valid": true,"reason": "SCHEDULE"},"exit": false,"enter": true},{"station": {"id": "8501200:0:1","name": "Vevey","pos": {"lat": 46.463005,"lng": 6.843447}},"arrival": {"time": 1630013640,"schedule_time": 1630013640,"track": "","schedule_track": "","valid": true,"reason": "SCHEDULE"},"departure": {"time": 1630013700,"schedule_time": 1630013700,"track": "","schedule_track": "","valid": true,"reason": "SCHEDULE"},"exit": false,"enter": false},{"station": {"id": "8501120:0:7","name": "Lausanne","pos": {"lat": 46.516796,"lng": 6.62909}},"arrival": {"time": 1630014540,"schedule_time": 1630014540,"track": "","schedule_track": "","valid": true,"reason": "SCHEDULE"},"departure": {"time": 1630014540,"schedule_time": 1630014540,"track": "","schedule_track": "","valid": true,"reason": "SCHEDULE"},"exit": true,"enter": false},{"station": {"id": "8501120P","name": "Lausanne","pos": {"lat": 46.516796,"lng": 6.62909}},"arrival": {"time": 1630014660,"schedule_time": 1630014660,"track": "","schedule_track": "","valid": true,"reason": "SCHEDULE"},"departure": {"time": 1630014660,"schedule_time": 1630014660,"track": "","schedule_track": "","valid": true,"reason": "SCHEDULE"},"exit": false,"enter": false},{"station": {"id": "8501120:0:5","name": "Lausanne","pos": {"lat": 46.516796,"lng": 6.62909}},"arrival": {"time": 1630014780,"schedule_time": 1630014780,"track": "","schedule_track": "","valid": true,"reason": "SCHEDULE"},"departure": {"time": 1630035780,"schedule_time": 1630035780,"track": "","schedule_track": "","valid": true,"reason": "SCHEDULE"},"exit": false,"enter": true},{"station": {"id": "8504200:0:1","name": "Yverdon-les-Bains","pos": {"lat": 46.781544,"lng": 6.640939}},"arrival": {"time": 1630037100,"schedule_time": 1630037100,"track": "","schedule_track": "","valid": true,"reason": "SCHEDULE"},"departure": {"time": 1630037160,"schedule_time": 1630037160,"track": "","schedule_track": "","valid": true,"reason": "SCHEDULE"},"exit": false,"enter": false},{"station": {"id": "8504221:0:5","name": "Neuch\u00E2tel","pos": {"lat": 46.996731,"lng": 6.935704}},"arrival": {"time": 1630038240,"schedule_time": 1630038240,"track": "","schedule_track": "","valid": true,"reason": "SCHEDULE"},"departure": {"time": 1630038360,"schedule_time": 1630038360,"track": "","schedule_track": "","valid": true,"reason": "SCHEDULE"},"exit": false,"enter": false},{"station": {"id": "8504300:0:3","name": "Biel/Bienne","pos": {"lat": 47.132893,"lng": 7.242909}},"arrival": {"time": 1630039320,"schedule_time": 1630039320,"track": "","schedule_track": "","valid": true,"reason": "SCHEDULE"},"departure": {"time": 1630039440,"schedule_time": 1630039440,"track": "","schedule_track": "","valid": true,"reason": "SCHEDULE"},"exit": false,"enter": false},{"station": {"id": "8500202:0:1","name": "Grenchen S\u00FCd","pos": {"lat": 47.188778,"lng": 7.398184}},"arrival": {"time": 1630039920,"schedule_time": 1630039920,"track": "","schedule_track": "","valid": true,"reason": "SCHEDULE"},"departure": {"time": 1630039980,"schedule_time": 1630039980,"track": "","schedule_track": "","valid": true,"reason": "SCHEDULE"},"exit": false,"enter": false},{"station": {"id": "8500207:0:1","name": "Solothurn","pos": {"lat": 47.204193,"lng": 7.542686}},"arrival": {"time": 1630040400,"schedule_time": 1630040400,"track": "","schedule_track": "","valid": true,"reason": "SCHEDULE"},"departure": {"time": 1630040460,"schedule_time": 1630040460,"track": "","schedule_track": "","valid": true,"reason": "SCHEDULE"},"exit": false,"enter": false},{"station": {"id": "8500218:0:7","name": "Olten","pos": {"lat": 47.351933,"lng": 7.907699}},"arrival": {"time": 1630041480,"schedule_time": 1630041480,"track": "","schedule_track": "","valid": true,"reason": "SCHEDULE"},"departure": {"time": 1630041600,"schedule_time": 1630041600,"track": "","schedule_track": "","valid": true,"reason": "SCHEDULE"},"exit": false,"enter": false},{"station": {"id": "8502113:0:3","name": "Aarau","pos": {"lat": 47.391365,"lng": 8.051276}},"arrival": {"time": 1630042140,"schedule_time": 1630042140,"track": "","schedule_track": "","valid": true,"reason": "SCHEDULE"},"departure": {"time": 1630042260,"schedule_time": 1630042260,"track": "","schedule_track": "","valid": true,"reason": "SCHEDULE"},"exit": false,"enter": false},{"station": {"id": "8503000:0:33","name": "Z\u00FCrich HB","pos": {"lat": 47.378174,"lng": 8.540212}},"arrival": {"time": 1630043760,"schedule_time": 1630043760,"track": "","schedule_track": "","valid": true,"reason": "SCHEDULE"},"departure": {"time": 1630043760,"schedule_time": 1630043760,"track": "","schedule_track": "","valid": true,"reason": "SCHEDULE"},"exit": true,"enter": false},{"station": {"id": "8503000P","name": "Z\u00FCrich HB","pos": {"lat": 47.378174,"lng": 8.540212}},"arrival": {"time": 1630043880,"schedule_time": 1630043880,"track": "","schedule_track": "","valid": true,"reason": "SCHEDULE"},"departure": {"time": 1630043880,"schedule_time": 1630043880,"track": "","schedule_track": "","valid": true,"reason": "SCHEDULE"},"exit": false,"enter": false},{"station": {"id": "8503000:0:43/44","name": "Z\u00FCrich HB","pos": {"lat": 47.378174,"lng": 8.540212}},"arrival": {"time": 1630044000,"schedule_time": 1630044000,"track": "","schedule_track": "","valid": true,"reason": "SCHEDULE"},"departure": {"time": 1630053540,"schedule_time": 1630053540,"track": "","schedule_track": "","valid": true,"reason": "SCHEDULE"},"exit": false,"enter": true},{"station": {"id": "8503003:0:3","name": "Z\u00FCrich Stadelhofen","pos": {"lat": 47.366611,"lng": 8.548485}},"arrival": {"time": 1630053660,"schedule_time": 1630053660,"track": "","schedule_track": "","valid": true,"reason": "SCHEDULE"},"departure": {"time": 1630053720,"schedule_time": 1630053720,"track": "","schedule_track": "","valid": true,"reason": "SCHEDULE"},"exit": false,"enter": false},{"station": {"id": "8503125:0:2","name": "Uster","pos": {"lat": 47.350368,"lng": 8.718707}},"arrival": {"time": 1630054380,"schedule_time": 1630054380,"track": "","schedule_track": "","valid": true,"reason": "SCHEDULE"},"departure": {"time": 1630054440,"schedule_time": 1630054440,"track": "","schedule_track": "","valid": true,"reason": "SCHEDULE"},"exit": false,"enter": false},{"station": {"id": "8503123:0:3","name": "Wetzikon","pos": {"lat": 47.318024,"lng": 8.792288}},"arrival": {"time": 1630054800,"schedule_time": 1630054800,"track": "","schedule_track": "","valid": true,"reason": "SCHEDULE"},"departure": {"time": 1630054800,"schedule_time": 1630054800,"track": "","schedule_track": "","valid": true,"reason": "SCHEDULE"},"exit": true,"enter": false},{"station": {"id": "8503123P","name": "Wetzikon","pos": {"lat": 47.318024,"lng": 8.792288}},"arrival": {"time": 1630054920,"schedule_time": 1630054920,"track": "","schedule_track": "","valid": true,"reason": "SCHEDULE"},"departure": {"time": 1630054920,"schedule_time": 1630054920,"track": "","schedule_track": "","valid": true,"reason": "SCHEDULE"},"exit": false,"enter": false},{"station": {"id": "8576105","name": "Wetzikon ZH, Bahnhof","pos": {"lat": 47.31855,"lng": 8.791623}},"arrival": {"time": 1630055040,"schedule_time": 1630055040,"track": "","schedule_track": "","valid": true,"reason": "SCHEDULE"},"departure": {"time": 1630055940,"schedule_time": 1630055940,"track": "","schedule_track": "","valid": true,"reason": "SCHEDULE"},"exit": false,"enter": true},{"station": {"id": "8587957","name": "Wetzikon ZH, Stadion","pos": {"lat": 47.31422,"lng": 8.799357}},"arrival": {"time": 1630056000,"schedule_time": 1630056000,"track": "","schedule_track": "","valid": true,"reason": "SCHEDULE"},"departure": {"time": 1630056000,"schedule_time": 1630056000,"track": "","schedule_track": "","valid": true,"reason": "SCHEDULE"},"exit": false,"enter": false},{"station": {"id": "8576008","name": "Hinwil, Bossikon","pos": {"lat": 47.30896,"lng": 8.813425}},"arrival": {"time": 1630056060,"schedule_time": 1630056060,"track": "","schedule_track": "","valid": true,"reason": "SCHEDULE"},"departure": {"time": 1630056060,"schedule_time": 1630056060,"track": "","schedule_track": "","valid": true,"reason": "SCHEDULE"},"exit": false,"enter": false},{"station": {"id": "8587939","name": "Hinwil, Hinwil Center West","pos": {"lat": 47.306519,"lng": 8.817216}},"arrival": {"time": 1630056180,"schedule_time": 1630056180,"track": "","schedule_track": "","valid": true,"reason": "SCHEDULE"},"departure": {"time": 1630056180,"schedule_time": 1630056180,"track": "","schedule_track": "","valid": true,"reason": "SCHEDULE"},"exit": false,"enter": false},{"station": {"id": "8576009","name": "Hinwil, Hinwil Center Ost","pos": {"lat": 47.305405,"lng": 8.820109}},"arrival": {"time": 1630056240,"schedule_time": 1630056240,"track": "","schedule_track": "","valid": true,"reason": "SCHEDULE"},"departure": {"time": 1630056240,"schedule_time": 1630056240,"track": "","schedule_track": "","valid": true,"reason": "SCHEDULE"},"exit": false,"enter": false},{"station": {"id": "8576010","name": "Hinwil, W\u00E4sseristrasse","pos": {"lat": 47.304466,"lng": 8.824169}},"arrival": {"time": 1630056300,"schedule_time": 1630056300,"track": "","schedule_track": "","valid": true,"reason": "SCHEDULE"},"departure": {"time": 1630056300,"schedule_time": 1630056300,"track": "","schedule_track": "","valid": true,"reason": "SCHEDULE"},"exit": false,"enter": false},{"station": {"id": "8576011","name": "Hinwil, Industriestrasse","pos": {"lat": 47.304119,"lng": 8.828553}},"arrival": {"time": 1630056360,"schedule_time": 1630056360,"track": "","schedule_track": "","valid": true,"reason": "SCHEDULE"},"departure": {"time": 0,"schedule_time": 0,"track": "","schedule_track": "","valid": false,"reason": "SCHEDULE"},"exit": true,"enter": false}],"transports": [{"move_type": "Transport","move": {"range": {"from": 0,"to": 6},"category_name": "Bus","category_id": 3,"clasz": 10,"train_nr": 18138,"line_id": "181","name": "Bus 181","provider": "PostAuto AG","direction": "Gstaad, Bahnhof"}},{"move_type": "Walk","move": {"range": {"from": 6,"to": 7},"mumo_id": -1,"price": 0,"accessibility": 0,"mumo_type": ""}},{"move_type": "Walk","move": {"range": {"from": 7,"to": 8},"mumo_id": -1,"price": 0,"accessibility": 0,"mumo_type": ""}},{"move_type": "Transport","move": {"range": {"from": 8,"to": 35},"category_name": "Tourist Railway","category_id": 36,"clasz": 6,"train_nr": 2237,"line_id": "PE","name": "PE","provider": "Montreux-Oberland Bernois","direction": "Montreux"}},{"move_type": "Walk","move": {"range": {"from": 35,"to": 36},"mumo_id": -1,"price": 0,"accessibility": 0,"mumo_type": ""}},{"move_type": "Walk","move": {"range": {"from": 36,"to": 37},"mumo_id": -1,"price": 0,"accessibility": 0,"mumo_type": ""}},{"move_type": "Transport","move": {"range": {"from": 37,"to": 39},"category_name": "Regional Rail","category_id": 5,"clasz": 6,"train_nr": 18488,"line_id": "RE","name": "RE","provider": "Schweizerische Bundesbahnen SBB","direction": "Gen\u00E8ve"}},{"move_type": "Walk","move": {"range": {"from": 39,"to": 40},"mumo_id": -1,"price": 0,"accessibility": 0,"mumo_type": ""}},{"move_type": "Walk","move": {"range": {"from": 40,"to": 41},"mumo_id": -1,"price": 0,"accessibility": 0,"mumo_type": ""}},{"move_type": "Transport","move": {"range": {"from": 41,"to": 49},"category_name": "IC5","category_id": 8,"clasz": 12,"train_nr": 509,"line_id": "IC5","name": "IC5 509","provider": "Schweizerische Bundesbahnen SBB","direction": "St. Gallen"}},{"move_type": "Walk","move": {"range": {"from": 49,"to": 50},"mumo_id": -1,"price": 0,"accessibility": 0,"mumo_type": ""}},{"move_type": "Walk","move": {"range": {"from": 50,"to": 51},"mumo_id": -1,"price": 0,"accessibility": 0,"mumo_type": ""}},{"move_type": "Transport","move": {"range": {"from": 51,"to": 54},"category_name": "S","category_id": 0,"clasz": 7,"train_nr": 19539,"line_id": "S15","name": "S15","provider": "Schweizerische Bundesbahnen SBB","direction": "Rapperswil"}},{"move_type": "Walk","move": {"range": {"from": 54,"to": 55},"mumo_id": -1,"price": 0,"accessibility": 0,"mumo_type": ""}},{"move_type": "Walk","move": {"range": {"from": 55,"to": 56},"mumo_id": -1,"price": 0,"accessibility": 0,"mumo_type": ""}},{"move_type": "Transport","move": {"range": {"from": 56,"to": 62},"category_name": "Bus","category_id": 3,"clasz": 10,"train_nr": 69219,"line_id": "869","name": "Bus 869","provider": "Verkehrsbetriebe Z\u00FCrichsee und Oberland","direction": "Hinwil, Bahnhof"}}],"trips": [{"range": {"from": 0,"to": 6},"id": {"station_id": "8501581","train_nr": 18138,"time": 1629988800,"target_station_id": "8571264","target_time": 1629991020,"line_id": "181"},"debug": "48.TA.96-841-j21-1.4.R:1296158:1296158"},{"range": {"from": 8,"to": 35},"id": {"station_id": "8507290:0:5","train_nr": 2237,"time": 1630004520,"target_station_id": "8501300:0:6","target_time": 1630012320,"line_id": "PE"},"debug": "36.TA.91-30-Y-j21-1.7.R:76426:76426"},{"range": {"from": 37,"to": 39},"id": {"station_id": "8501403:0:3","train_nr": 18488,"time": 1630011960,"target_station_id": "8501008:0:2","target_time": 1630017900,"line_id": "RE"},"debug": "1999.TA.91-REG-S-j21-1.1144.R:179938:179938"},{"range": {"from": 41,"to": 49},"id": {"station_id": "8501120:0:5","train_nr": 509,"time": 1630035780,"target_station_id": "8506302:0:2","target_time": 1630047720,"line_id": "IC5"},"debug": "1037.TA.91-5-B-j21-1.613.H:100084:100084"},{"range": {"from": 51,"to": 54},"id": {"station_id": "8503319:0:1","train_nr": 19539,"time": 1630051440,"target_station_id": "8503110:0:3","target_time": 1630055760,"line_id": "S15"},"debug": "149.TA.91-S15-Z-j21-1.49.H:208702:208702"},{"range": {"from": 56,"to": 62},"id": {"station_id": "8576105","train_nr": 69219,"time": 1630055940,"target_station_id": "8576104","target_time": 1630056600,"line_id": "869"},"debug": "20.TA.92-869-j21-1.2.H:626145:626145"}],"attributes": [],"free_texts": [],"problems": [],"night_penalty": 0,"max_occupancy": 1,"db_costs": 0,"status": "OK"},{"stops": [{"station": {"id": "8571284","name": "Gstaad, Trom","pos": {"lat": 46.458988,"lng": 7.305119}},