{"destination": {"type": "Module","target": ""},"content_type": "RoutingResponse","content": {"statistics": [{"category": "raptor","entries": [{"name": "raptor_queries","value": 1},{"name": "raptor_time","value": 118},{"name": "rec_time","value": 467},{"name": "total_calculation_time","value": 119}]}],"connections": [{"stops": [{"station": {"id": "8576087","name": "M\u00E4nnedorf, B\u00FCelen","pos": {"lat": 47.262486,"lng": 8.687086}},"arrival": {"time": 0,"schedule_time": 0,"track": "","schedule_track": "","valid": false,"reason": "SCHEDULE"},"departure": {"time": 1629962040,"schedule_time": 1629962040,"track": "","schedule_track": "","valid": true,"reason": "SCHEDULE"},"exit": true,"enter": true},{"station": {"id": "8503363","name": "Uetikon am See, Kleindorf","pos": {"lat": 47.26429,"lng": 8.682586}},"arrival": {"time": 1629962100,"schedule_time": 1629962100,"track": "","schedule_track": "","valid": true,"reason": "SCHEDULE"},"departure": {"time": 1629962100,"schedule_time": 1629962100,"track": "","schedule_track": "","valid": true,"reason": "SCHEDULE"},"exit": true,"enter": true},{"station": {"id": "8588430","name": "Uetikon am See, Tramstrasse","pos": {"lat": 47.265789,"lng": 8.677357}},"arrival": {"time": 1629962160,"schedule_time": 1629962160,"track": "","schedule_track": "","valid": true,"reason": "SCHEDULE"},"departure": {"time": 1629962160,"schedule_time": 1629962160,"track": "","schedule_track": "","valid": true,"reason": "SCHEDULE"},"exit": true,"enter": true},{"station": {"id": "8576086","name": "Uetikon am See, Grossdorf","pos": {"lat": 47.266457,"lng": 8.674204}},"arrival": {"time": 1629962280,"schedule_time": 1629962280,"track": "","schedule_track": "","valid": true,"reason": "SCHEDULE"},"departure": {"time": 1629962280,"schedule_time": 1629962280,"track": "","schedule_track": "","valid": true,"reason": "SCHEDULE"},"exit": true,"enter": true},{"station": {"id": "8576085","name": "Meilen, Weid","pos": {"lat": 47.266102,"lng": 8.668761}},"arrival": {"time": 1629962340,"schedule_time": 1629962340,"track": "","schedule_track": "","valid": true,"reason": "SCHEDULE"},"departure": {"time": 1629962340,"schedule_time": 1629962340,"track": "","schedule_track": "","valid": true,"reason": "SCHEDULE"},"exit": true,"enter": true},{"station": {"id": "8576084","name": "Meilen, Dollikon","pos": {"lat": 47.264091,"lng": 8.662796}},"arrival": {"time": 1629962400,"schedule_time": 1629962400,"track": "","schedule_track": "","valid": true,"reason": "SCHEDULE"},"departure": {"time": 1629962400,"schedule_time": 1629962400,"track": "","schedule_track": "","valid": true,"reason": "SCHEDULE"},"exit": true,"enter": true},{"station": {"id": "8576083","name": "Meilen, Obermeilen","pos": {"lat": 47.264847,"lng": 8.654737}},"arrival": {"time": 1629962520,"schedule_time": 1629962520,"track": "","schedule_track": "","valid": true,"reason": "SCHEDULE"},"departure": {"time": 1629962520,"schedule_time": 1629962520,"track": "","schedule_track": "","valid": true,"reason": "SCHEDULE"},"exit": false,"enter": false},{"station": {"id": "8576082","name": "Meilen, Beugen","pos": {"lat": 47.267269,"lng": 8.650713}},"arrival": {"time": 1629962580,"schedule_time": 1629962580,"track": "","schedule_track": "","valid": true,"reason": "SCHEDULE"},"departure": {"time": 1629962580,"schedule_time": 1629962580,"track": "","schedule_track": "","valid": true,"reason": "SCHEDULE"},"exit": false,"enter": false},{"station": {"id": "8576080","name": "Meilen, Bahnhof","pos": {"lat": 47.26944,"lng": 8.644883}},"arrival": {"time": 1629962820,"schedule_time": 1629962820,"track": "","schedule_track": "","valid": true,"reason": "SCHEDULE"},"departure": {"time": 1629504000,"schedule_time": 1629504000,"track": "","schedule_track": "","valid": true,"reason": "SCHEDULE"},"exit": false,"enter": false},{"station": {"id": "8503104:0:3","name": "Meilen","pos": {"lat": 47.269817,"lng": 8.644308}},"arrival": {"time": 1629963060,"schedule_time": 1629963060,"track": "","schedule_track": "","valid": true,"reason": "SCHEDULE"},"departure": {"time": 1629963180,"schedule_time": 1629963180,"track": "","schedule_track": "","valid": true,"reason": "SCHEDULE"},"exit": false,"enter": false},{"station": {"id": "8503003:0:1","name": "Z\u00FCrich Stadelhofen","pos": {"lat": 47.366611,"lng": 8.548485}},"arrival": {"time": 1629963840,"schedule_time": 1629963840,"track": "","schedule_track": "","valid": true,"reason": "SCHEDULE"},"departure": {"time": 1629963900,"schedule_time": 1629963900,"track": "","schedule_track": "","valid": true,"reason": "SCHEDULE"},"exit": false,"enter": false},{"station": {"id": "8503000:0:41/42","name": "Z\u00FCrich HB","pos": {"lat": 47.378174,"lng": 8.540212}},"arrival": {"time": 1629964020,"schedule_time": 1629964020,"track": "","schedule_track": "","valid": true,"reason": "SCHEDULE"},"departure": {"time": 1629964140,"schedule_time": 1629964140,"track": "","schedule_track": "","valid": true,"reason": "SCHEDULE"},"exit": false,"enter": false},{"station": {"id": "8503000:0:32","name": "Z\u00FCrich HB","pos": {"lat": 47.378174,"lng": 8.540212}},"arrival": {"time": 1629964260,"schedule_time": 1629964260,"track": "","schedule_track": "","valid": true,"reason": "SCHEDULE"},"departure": {"time": 1629965040,"schedule_time": 1629965040,"track": "","schedule_track": "","valid": true,"reason": "SCHEDULE"},"exit": false,"enter": false},{"station": {"id": "8502113:0:4","name": "Aarau","pos": {"lat": 47.391365,"lng": 8.051276}},"arrival": {"time": 1629966480,"schedule_time": 1629966480,"track": "","schedule_track": "","valid": true,"reason": "SCHEDULE"},"departure": {"time": 1629966600,"schedule_time": 1629966600,"track": "","schedule_track": "","valid": true,"reason": "SCHEDULE"},"exit": false,"enter": false},{"station": {"id": "8500218:0:8","name": "Olten","pos": {"lat": 47.351933,"lng": 7.907699}},"arrival": {"time": 1629967080,"schedule_time": 1629967080,"track": "","schedule_track": "","valid": true,"reason": "SCHEDULE"},"departure": {"time": 1629967200,"schedule_time": 1629967200,"track": "","schedule_track": "","valid": true,"reason": "SCHEDULE"},"exit": false,"enter": false},{"station": {"id": "8500207:0:2","name": "Solothurn","pos": {"lat": 47.204193,"lng": 7.542686}},"arrival": {"time": 1629968160,"schedule_time": 1629968160,"track": "","schedule_track": "","valid": true,"reason": "SCHEDULE"},"departure": {"time": 1629968280,"schedule_time": 1629968280,"track": "","schedule_track": "","valid": true,"reason": "SCHEDULE"},"exit": false,"enter": false},{"station": {"id": "8504300:0:5","name": "Biel/Bienne","pos": {"lat": 47.132893,"lng": 7.242909}},"arrival": {"time": 1629969180,"schedule_time": 1629969180,"track": "","schedule_track": "","valid": true,"reason": "SCHEDULE"},"departure": {"time": 1629969360,"schedule_time": 1629969360,"track": "","schedule_track": "","valid": true,"reason": "SCHEDULE"},"exit": false,"enter": false},{"station": {"id": "8504221:0:3","name": "Neuch\u00E2tel","pos": {"lat": 46.996731,"lng": 6.935704}},"arrival": {"time": 1629970320,"schedule_time": 1629970320,"track": "","schedule_track": "","valid": true,"reason": "SCHEDULE"},"departure": {"time": 1629970440,"schedule_time": 1629970440,"track": "","schedule_track": "","valid": true,"reason": "SCHEDULE"},"exit": false,"enter": false},{"station": {"id": "8504200:0:2","name": "Yverdon-les-Bains","pos": {"lat": 46.781544,"lng": 6.640939}},"arrival": {"time": 1629971520,"schedule_time": 1629971520,"track": "","schedule_track": "","valid": true,"reason": "SCHEDULE"},"departure": {"time": 1629971580,"schedule_time": 1629971580,"track": "","schedule_track": "","valid": true,"reason": "SCHEDULE"},"exit": false,"enter": false},{"station": {"id": "8501037:0:2","name": "Morges","pos": {"lat": 46.511097,"lng": 6.493966}},"arrival": {"time": 1629972960,"schedule_time": 1629972960,"track": "","schedule_track": "","valid": true,"reason": "SCHEDULE"},"departure": {"time": 1629973080,"schedule_time": 1629973080,"track": "","schedule_track": "","valid": true,"reason": "SCHEDULE"},"exit": false,"enter": false},{"station": {"id": "8501008:0:4","name": "Gen\u00E8ve","pos": {"lat": 46.210209,"lng": 6.142455}},"arrival": {"time": 1629974820,"schedule_time": 1629974820,"track": "","schedule_track": "","valid": true,"reason": "SCHEDULE"},"departure": {"time": 1629974940,"schedule_time": 1629974940,"track": "","schedule_track": "","valid": true,"reason": "SCHEDULE"},"exit": false,"enter": false},{"station": {"id": "8501008:0:2","name": "Gen\u00E8ve","pos": {"lat": 46.210209,"lng": 6.142455}},"arrival": {"time": 1629975060,"schedule_time": 1629975060,"track": "","schedule_track": "","valid": true,"reason": "SCHEDULE"},"departure": {"time": 1629975720,"schedule_time": 1629975720,"track": "","schedule_track": "","valid": true,"reason": "SCHEDULE"},"exit": false,"enter": false},{"station": {"id": "8516155:0:1","name": "Lancy-Pont-Rouge","pos": {"lat": 46.185944,"lng": 6.124947}},"arrival": {"time": 1629976020,"schedule_time": 1629976020,"track": "","schedule_track": "","valid": true,"reason": "SCHEDULE"},"departure": {"time": 1629976020,"schedule_time": 1629976020,"track": "","schedule_track": "","valid": true,"reason": "SCHEDULE"},"exit": false,"enter": false},{"station": {"id": "8517142:0:1","name": "Lancy-Bachet","pos": {"lat": 46.174332,"lng": 6.129358}},"arrival": {"time": 1629976140,"schedule_time": 1629976140,"track": "","schedule_track": "","valid": true,"reason": "SCHEDULE"},"departure": {"time": 1629976200,"schedule_time": 1629976200,"track": "","schedule_track": "","valid": true,"reason": "SCHEDULE"},"exit": false,"enter": false},{"station": {"id": "8516272:0:1","name": "Gen\u00E8ve-Champel","pos": {"lat": 46.192192,"lng": 6.153495}},"arrival": {"time": 1629976380,"schedule_time": 1629976380,"track": "","schedule_track": "","valid": true,"reason": "SCHEDULE"},"departure": {"time": 1629976380,"schedule_time": 1629976380,"track": "","schedule_track": "","valid": true,"reason": "SCHEDULE"},"exit": false,"enter": false},{"station": {"id": "8516273:0:1","name": "Gen\u00E8ve-Eaux-Vives","pos": {"lat": 46.201443,"lng": 6.166566}},"arrival": {"time": 1629976560,"schedule_time": 1629976560,"track": "","schedule_track": "","valid": true,"reason": "SCHEDULE"},"departure": {"time": 1629976620,"schedule_time": 1629976620,"track": "","schedule_track": "","valid": true,"reason": "SCHEDULE"},"exit": false,"enter": false},{"station": {"id": "8516274:0:1","name": "Ch\u00EAne-Bourg","pos": {"lat": 46.196602,"lng": 6.197333}},"arrival": {"time": 1629976740,"schedule_time": 1629976740,"track": "","schedule_track": "","valid": true,"reason": "SCHEDULE"},"departure": {"time": 1629976740,"schedule_time": 1629976740,"track": "","schedule_track": "","valid": true,"reason": "SCHEDULE"},"exit": false,"enter": false},{"station": {"id": "8774549","name": "Annemasse","pos": {"lat": 46.199341,"lng": 6.236401}},"arrival": {"time": 1629977100,"schedule_time": 1629977100,"track": "","schedule_track": "","valid": true,"reason": "SCHEDULE"},"departure": {"time": 1629504000,"schedule_time": 1629504000,"track": "","schedule_track": "","valid": true,"reason": "SCHEDULE"},"exit": false,"enter": false},{"station": {"id": "1400338","name": "Annemasse, Gare routi\u00E8re","pos": {"lat": 46.199162,"lng": 6.237784}},"arrival": {"time": 1629977460,"schedule_time": 1629977460,"track": "","schedule_track": "","valid": true,"reason": "SCHEDULE"},"departure": {"time": 1629994500,"schedule_time": 1629994500,"track": "","schedule_track": "","valid": true,"reason": "SCHEDULE"},"exit": false,"enter": false},{"station": {"id": "1401641","name": "Ville-la-Grand,Coll\u00E8geLangevin","pos": {"lat": 46.202435,"lng": 6.256542}},"arrival": {"time": 1629994920,"schedule_time": 1629994920,"track": "","schedule_track": "","valid": true,"reason": "SCHEDULE"},"departure": {"time": 1629994920,"schedule_time": 1629994920,"track": "","schedule_track": "","valid": true,"reason": "SCHEDULE"},"exit": false,"enter": false},{"station": {"id": "1401899","name": "Ville-la-Grand, Rue du Bois","pos": {"lat": 46.203602,"lng": 6.276367}},"arrival": {"time": 1629995100,"schedule_time": 1629995100,"track": "","schedule_track": "","valid": true,"reason": "SCHEDULE"},"departure": {"time": 1629995100,"schedule_time": 1629995100,"track": "","schedule_track": "","valid": true,"reason": "SCHEDULE"},"exit": false,"enter": false},{"station": {"id": "1401870","name": "St-Cergues (F), La Tuilliere","pos": {"lat": 46.226284,"lng": 6.314914}},"arrival": {"time": 1629995220,"schedule_time": 1629995220,"track": "","schedule_track": "","valid": true,"reason": "SCHEDULE"},"departure": {"time": 1629995220,"schedule_time": 1629995220,"track": "","schedule_track": "","valid": true,"reason": "SCHEDULE"},"exit": false,"enter": false},{"station": {"id": "1401875","name": "St-Cergues (F), Mairie","pos": {"lat": 46.236458,"lng": 6.321974}},"arrival": {"time": 1629995520,"schedule_time": 1629995520,"track": "","schedule_track": "","valid": true,"reason": "SCHEDULE"},"departure": {"time": 1629995520,"schedule_time": 1629995520,"track": "","schedule_track": "","valid": true,"reason": "SCHEDULE"},"exit": false,"enter": false},{"station": {"id": "1401872","name": "St-Cergues (F), Les Tilleuls","pos": {"lat": 46.239914,"lng": 6.32485}},"arrival": {"time": 1629995700,"schedule_time": 1629995700,"track": "","schedule_track": "","valid": true,"reason": "SCHEDULE"},"departure": {"time": 1629995700,"schedule_time": 1629995700,"track": "","schedule_track": "","valid": true,"reason": "SCHEDULE"},"exit": false,"enter": false},{"station": {"id": "1401762","name": "Machilly, gare","pos": {"lat": 46.251522,"lng": 6.328694}},"arrival": {"time": 1629995820,"schedule_time": 1629995820,"track": "","schedule_track": "","valid": true,"reason": "SCHEDULE"},"departure": {"time": 1629995820,"schedule_time": 1629995820,"track": "","schedule_track": "","valid": true,"reason": "SCHEDULE"},"exit": false,"enter": false},{"station": {"id": "1401538","name": "Bons-en-Chablais, Langin","pos": {"lat": 46.261009,"lng": 6.351997}},"arrival": {"time": 1629995940,"schedule_time": 1629995940,"track": "","schedule_track": "","valid": true,"reason": "SCHEDULE"},"departure": {"time": 1629995940,"schedule_time": 1629995940,"track": "","schedule_track": "","valid": true,"reason": "SCHEDULE"},"exit": false,"enter": false},{"station": {"id": "1400774","name": "Bons-en-Chablais, Mairie","pos": {"lat": 46.265091,"lng": 6.371301}},"arrival": {"time": 1629996240,"schedule_time": 1629996240,"track": "","schedule_track": "","valid": true,"reason": "SCHEDULE"},"departure": {"time": 1629996240,"schedule_time": 1629996240,"track": "","schedule_track": "","valid": true,"reason": "SCHEDULE"},"exit": false,"enter": false},{"station": {"id": "1401903","name": "Brenthonne, C L Vers Clocher","pos": {"lat": 46.273518,"lng": 6.394774}},"arrival": {"time": 1629996360,"schedule_time": 1629996360,"track": "","schedule_track": "","valid": true,"reason": "SCHEDULE"},"departure": {"time": 1629996360,"schedule_time": 1629996360,"track": "","schedule_track": "","valid": true,"reason": "SCHEDULE"},"exit": false,"enter": false},{"station": {"id": "1401216","name": "Fessy, Chez Picut","pos": {"lat": 46.279964,"lng": 6.405455}},"arrival": {"time": 1629996480,"schedule_time": 1629996480,"track": "","schedule_track": "","valid": true,"reason": "SCHEDULE"},"departure": {"time": 1629996480,"schedule_time": 1629996480,"track": "","schedule_track": "","valid": true,"reason": "SCHEDULE"},"exit": false,"enter": false},{"station": {"id": "1401154","name": "Lully, Route De Thonon","pos": {"lat": 46.285374,"lng": 6.41575}},"arrival": {"time": 1629996600,"schedule_time": 1629996600,"track": "","schedule_track": "","valid": true,"reason": "SCHEDULE"},"departure": {"time": 1629996600,"schedule_time": 1629996600,"track": "","schedule_track": "","valid": true,"reason": "SCHEDULE"},"exit": false,"enter": false},{"station": {"id": "1400792","name": "Perrignier, Brecorens","pos": {"lat": 46.295689,"lng": 6.429143}},"arrival": {"time": 1629996720,"schedule_time": 1629996720,"track": "","schedule_track": "","valid": true,"reason": "SCHEDULE"},"departure": {"time": 1629996720,"schedule_time": 1629996720,"track": "","schedule_track": "","valid": true,"reason": "SCHEDULE"},"exit": false,"enter": false},{"station": {"id": "1400607","name": "\u00C9vian-les-Bains, Hotel De Vil.","pos": {"lat": 46.402119,"lng": 6.590599}},"arrival": {"time": 1629996840,"schedule_time": 1629996840,"track": "","schedule_track": "","valid": true,"reason": "SCHEDULE"},"departure": {"time": 1629996840,"schedule_time": 1629996840,"track": "","schedule_track": "","valid": true,"reason": "SCHEDULE"},"exit": false,"enter": false},{"station": {"id": "1400465","name": "Thonon-les-Bains, Collonges","pos": {"lat": 46.358154,"lng": 6.473664}},"arrival": {"time": 1629997080,"schedule_time": 1629997080,"track": "","schedule_track": "","valid": true,"reason": "SCHEDULE"},"departure": {"time": 1629997080,"schedule_time": 1629997080,"track": "","schedule_track": "","valid": true,"reason": "SCHEDULE"},"exit": false,"enter": false},{"station": {"id": "1400523","name": "Marin, Moruel","pos": {"lat": 46.381302,"lng": 6.52874}},"arrival": {"time": 1629997200,"schedule_time": 1629997200,"track": "","schedule_track": "","valid": true,"reason": "SCHEDULE"},"departure": {"time": 1629997200,"schedule_time": 1629997200,"track": "","schedule_track": "","valid": true,"reason": "SCHEDULE"},"exit": false,"enter": false},{"station": {"id": "1400371","name": "Thonon-les-Bains, Vongy Eglise","pos": {"lat": 46.382923,"lng": 6.505267}},"arrival": {"time": 1629997500,"schedule_time": 1629997500,"track": "","schedule_track": "","valid": true,"reason": "SCHEDULE"},"departure": {"time": 1629997500,"schedule_time": 1629997500,"track": "","schedule_track": "","valid": true,"reason": "SCHEDULE"},"exit": false,"enter": false},{"station": {"id": "1400375","name": "St Paul En Chablais, La Foully","pos": {"lat": 46.36795,"lng": 6.61753}},"arrival": {"time": 1629997740,"schedule_time": 1629997740,"track": "","schedule_track": "","valid": true,"reason": "SCHEDULE"},"departure": {"time": 1629997740,"schedule_time": 1629997740,"track": "","schedule_track": "","valid": true,"reason": "SCHEDULE"},"exit": false,"enter": false},{"station": {"id": "1400706","name": "Thonon-les-Bains, Chat.Thuyset","pos": {"lat": 46.381241,"lng": 6.498377}},"arrival": {"time": 1629997800,"schedule_time": 1629997800,"track": "","schedule_track": "","valid": true,"reason": "SCHEDULE"},"departure": {"time": 1629997800,"schedule_time": 1629997800,"track": "","schedule_track": "","valid": true,"reason": "SCHEDULE"},"exit": false,"enter": false},{"station": {"id": "1400501","name": "Thonon-les-Bains, Shop. Leman","pos": {"lat": 46.379898,"lng": 6.496356}},"arrival": {"time": 1629997860,"schedule_time": 1629997860,"track": "","schedule_track": "","valid": true,"reason": "SCHEDULE"},"departure": {"time": 1629997860,"schedule_time": 1629997860,"track": "","schedule_track": "","valid": true,"reason": "SCHEDULE"},"exit": false,"enter": false},{"station": {"id": "1400776","name": "Thonon-les-Bains, College Cham","pos": {"lat": 46.37933,"lng": 6.494667}},"arrival": {"time": 1629997860,"schedule_time": 1629997860,"track": "","schedule_track": "","valid": true,"reason": "SCHEDULE"},"departure": {"time": 1629997860,"schedule_time": 1629997860,"track": "","schedule_track": "","valid": true,"reason": "SCHEDULE"},"exit": false,"enter": false},{"station": {"id": "1400682","name": "Thonon-les-Bains, Pres Verts","pos": {"lat": 46.379696,"lng": 6.492933}},"arrival": {"time": 1629997920,"schedule_time": 1629997920,"track": "","schedule_track": "","valid": true,"reason": "SCHEDULE"},"departure": {"time": 1629997920,"schedule_time": 1629997920,"track": "","schedule_track": "","valid": true,"reason": "SCHEDULE"},"exit": false,"enter": false},{"station": {"id": "1400646","name": "Thonon-les-Bains, Cim.De Thon.","pos": {"lat": 46.376534,"lng": 6.491801}},"arrival": {"time": 1629998040,"schedule_time": 1629998040,"track": "","schedule_track": "","valid": true,"reason": "SCHEDULE"},"departure": {"time": 1629998040,"schedule_time": 1629998040,"track": "","schedule_track": "","valid": true,"reason": "SCHEDULE"},"exit": false,"enter": false},{"station": {"id": "1400391","name": "Thonon-les-Bains, Aricoques","pos": {"lat": 46.374687,"lng": 6.493436}},"arrival": {"time": 1629998100,"schedule_time": 1629998100,"track": "","schedule_track": "","valid": true,"reason": "SCHEDULE"},"departure": {"time": 1629998100,"schedule_time": 1629998100,"track": "","schedule_track": "","valid": true,"reason": "SCHEDULE"},"exit": false,"enter": false}],"transports": [{"move_type": "Transport","move": {"range": {"from": 0,"to": 8},"category_name": "Bus","category_id": 3,"clasz": 10,"train_nr": 25035,"line_id": "925","name": "Bus 925","provider": "Verkehrsbetriebe Z\u00FCrichsee und Oberland","direction": "Meilen, Bahnhof"}},{"move_type": "Walk","move": {"range": {"from": 8,"to": 9},"mumo_id": 0,"price": 0,"accessibility": 0,"mumo_type": ""}},{"move_type": "Transport","move": {"range": {"from": 9,"to": 11},"category_name": "S","category_id": 0,"clasz": 7,"train_nr": 18734,"line_id": "S7","name": "S7","provider": "Schweizerische Bundesbahnen SBB","direction": "Winterthur"}},{"move_type": "Walk","move": {"range": {"from": 11,"to": 12},"mumo_id": 0,"price": 0,"accessibility": 0,"mumo_type": ""}},{"move_type": "Transport","move": {"range": {"from": 12,"to": 20},"category_name": "IC5","category_id": 8,"clasz": 12,"train_nr": 516,"line_id": "IC5","name": "IC5 516","provider": "Schweizerische Bundesbahnen SBB","direction": "Gen\u00E8ve-A\u00E9roport"}},{"move_type": "Walk","move": {"range": {"from": 20,"to": 21},"mumo_id": 0,"price": 0,"accessibility": 0,"mumo_type": ""}},{"move_type": "Transport","move": {"range": {"from": 21,"to": 27},"category_name": "S","category_id": 0,"clasz": 7,"train_nr": 23146,"line_id": "SL4","name": "SL4","provider": "Schweizerische Bundesbahnen SBB","direction": "Annemasse"}},{"move_type": "Walk","move": {"range": {"from": 27,"to": 28},"mumo_id": 0,"price": 0,"accessibility": 0,"mumo_type": ""}},{"move_type": "Transport","move": {"range": {"from": 28,"to": 44},"category_name": "Bus","category_id": 3,"clasz": 10,"train_nr": 79,"line_id": "L141A","name": "Bus L141A","provider": "But","direction": "\u00C9vian-les-Bains, Embarcadere"}},{"move_type": "Transport","move": {"range": {"from": 44,"to": 51},"category_name": "Bus","category_id": 3,"clasz": 10,"train_nr": 207,"line_id": "P","name": "Bus P","provider": "But","direction": "Thonon-les-Bains, Pl des Arts"}}],"trips": [{"range": {"from": 0,"to": 8},"id": {"station_id": "8576101","train_nr": 25035,"time": 1629960900,"target_station_id": "8576080","target_time": 1629962820,"line_id": "925"},"debug": "42.TA.92-925-j21-1.5.H:646753:646753"},{"range": {"from": 9,"to": 11},"id": {"station_id": "8503110:0:1","train_nr": 18734,"time": 1629961740,"target_station_id": "8506000:0:7","target_time": 1629966300,"line_id": "S7"},"debug": "476.TA.91-S07-Z-j21-1.136.R:201116:201116"},{"range": {"from": 12,"to": 20},"id": {"station_id": "8506302:0:2A-D","train_nr": 516,"time": 1629961080,"target_station_id": "8501026:0:4","target_time": 1629975360,"line_id": "IC5"},"debug": "1242.TA.91-5-B-j21-1.695.H:100312:100312"},{"range": {"from": 21,"to": 27},"id": {"station_id": "8501008:0:2","train_nr": 23146,"time": 1629975720,"target_station_id": "8774549","target_time": 1629977100,"line_id": "SL4"},"debug": "68.TA.91-L4-j21-1.1.H:163201:163201"},{"range": {"from": 28,"to": 44},"id": {"station_id": "1400338","train_nr": 79,"time": 1629994500,"target_station_id": "1400437","target_time": 1629998520,"line_id": "L141A"},"debug": "10.TA.92-A07-H-j21-1.7.H:678194:678194"},{"range": {"from": 44,"to": 51},"id": {"station_id": "1401624","train_nr": 207,"time": 1629996900,"target_station_id": "1401273","target_time": 1629998460,"line_id": "P"},"debug": "3.TA.92-P-A-j21-1.1.H:713387:713387"}],"attributes": [],"free_texts": [],"problems": [],"night_penalty": 0,"max_occupancy": 2,"db_costs": 0,"status": "OK"},{"stops": [{"station": {"id": "8576087","name": "M\u00E4nnedorf, B\u00FCelen","pos": {"lat": 47.262486,"lng": 8.687086}},"arrival": {"time": 0,"schedule_time": 0,"track": "","schedule_track": "","valid": false,"reason": "SCHEDULE"},"departure": {"time": 1629967440,"schedule_time": 1629967440,"track": "","schedule_track": "","valid": true,"reason": "SCHEDULE"},"exit": true,"enter": true},{"station": {"id": "8503363","name": "Uetikon am See, Kleindorf","pos": {"lat": 47.26429,"lng": 8.682586}},"arrival": {"time": 1629967500,"schedule_time": 1629967500,"track": "","schedule_track": "","valid": true,"reason": "SCHEDULE"},"departure": {"time": 1629967500,"schedule_time": 1629967500,"track": "","schedule_track": "","valid": true,"reason": "SCHEDULE"},"exit": true,"enter": true},{"station": {"id": "8588430","name": "Uetikon am See, Tramstrasse","pos": {"lat": 47.265789,"lng": 8.677357}},"arrival": {"time": 1629967560,"schedule_time": 1629967560,"track": "","schedule_track": "","valid": true,"reason": "SCHEDULE"},"departure": {"time": 1629967560,"schedule_time": 1629967560,"track": "","schedule_track": "","valid": true,"reason": "SCHEDULE"},"exit": true,"enter": true},{"station": {"id": "8576086","name": "Uetikon am See, Grossdorf","pos": {"lat": 47.266457,"lng": 8.674204}},"arrival": {"time": 1629967680,"schedule_time": 1629967680,"track": "","schedule_track": "","valid": true,"reason": "SCHEDULE"},"departure": {"time": 1629967680,"schedule_time": 1629967680,"track": "","schedule_track": "","valid": true,"reason": "SCHEDULE"},"exit": true,"enter": true},{"station": {"id": "8576085","name": "Meilen, Weid","pos": {"lat": 47.266102,"lng": 8.668761}},"arrival": {"time": 1629967740,"schedule_time": 1629967740,"track": "","schedule_track": "","valid": true,"reason": "SCHEDULE"},"departure": {"time": 1629967740,"schedule_time": 1629967740,"track": "","schedule_track": "","valid": true,"reason": "SCHEDULE"},"exit": true,"enter": true},{"station": {"id": "8576084","name": "Meilen, Dollikon","pos": {"lat": 47.264091,"lng": 8.662796}},"arrival": {"time": 1629967800,"schedule_time": 1629967800,"track": "","schedule_track": "","valid": true,"reason": "SCHEDULE"},"departure": {"time": 1629967800,"schedule_time": 1629967800,"track": "","schedule_track": "","valid": true,"reason": "SCHEDULE"},"exit": true,"enter": true},{"station": {"id": "8576083","name": "Meilen, Obermeilen","pos": {"lat": 47.264847,"lng": 8.654737}},"arrival": {"time": 1629967920,"schedule_time": 1629967920,"track": "","schedule_track": "","valid": true,"reason": "SCHEDULE"},"departure": {"time": 1629967920,"schedule_time": 1629967920,"track": "","schedule_track": "","valid": true,"reason": "SCHEDULE"},"exit": true,"enter": true},{"station": {"id": "8576082","name": "Meilen, Beugen","pos": {"lat": 47.267269,"lng": 8.650713}},"arrival": {"time": 1629967980,"schedule_time": 1629967980,"track": "","schedule_track": "","valid": true,"reason": "SCHEDULE"},"departure": {"time": 1629967980,"schedule_time": 1629967980,"track": "","schedule_track": "","valid": true,"reason": "SCHEDULE"},"exit": false,"enter": false},{"station": {"id": "8576080","name": "Meilen, Bahnhof","pos": {"lat": 47.26944,"lng": 8.644883}},"arrival": {"time": 1629968220,"schedule_time": 1629968220,"track": "","schedule_track": "","valid": true,"reason": "SCHEDULE"},"departure": {"time": 1629504000,"schedule_time": 1629504000,"track": "","schedule_track": "","valid": true,"reason": "SCHEDULE"},"exit": false,"enter": false},{"station": {"id": "8503104:0:3","name": "Meilen","pos": {"lat": 47.269817,"lng": 8.644308}},"arrival": {"time": 1629968460,"schedule_time": 1629968460,"track": "","schedule_track": "","valid": true,"reason": "SCHEDULE"},"departure": {"time": 1629968580,"schedule_time": 1629968580,"track": "","schedule_track": "","valid": true,"reason": "SCHEDULE"},"exit": false,"enter": false},{"station": {"id": "8503003:0:1","name": "Z\u00FCrich Stadelhofen","pos": {"lat": 47.366611,"lng": 8.548485}},"arrival": {"time": 1629969240,"schedule_time": 1629969240,"track": "","schedule_track": "","valid": true,"reason": "SCHEDULE"},"departure": {"time": 1629969300,"schedule_time": 1629969300,"track": "","schedule_track": "","valid": true,"reason": "SCHEDULE"},"exit": false,"enter": false},{"station": {"id": "8503000:0:41/42","name": "Z\u00FCrich HB","pos": {"lat": 47.378174,"lng": 8.540212}},"arrival": {"time": 1629969420,"schedule_time": 1629969420,"track": "","schedule_track": "","valid": true,"reason": "SCHEDULE"},"departure": {"time": 1629969540,"schedule_time": 1629969540,"track": "","schedule_track": "","valid": true,"reason": "SCHEDULE"},"exit": false,"enter": false},{"station": {"id": "8503000:0:32","name": "Z\u00FCrich HB","pos": {"lat": 47.378174,"lng": 8.540212}},"arrival": {"time": 1629969660,"schedule_time": 1629969660,"track": "","schedule_track": "","valid": true,"reason": "SCHEDULE"},"departure": {"time": 1629970320,"schedule_time": 1629970320,"track": "","schedule_track": "","valid": true,"reason": "SCHEDULE"},"exit": false,"enter": false},{"station": {"id": "8507000:0:5","name": "Bern","pos": {"lat": 46.948833,"lng": 7.439129}},"arrival": {"time": 1629973680,"schedule_time": 1629973680,"track": "","schedule_track": "","valid": true,"reason": "SCHEDULE"},"departure": {"time": 1629974040,"schedule_time": 1629974040,"track": "","schedule_track": "","valid": true,"reason": "SCHEDULE"},"exit": false,"enter": false},{"station": {"id": "8504100:0:2","name": "Fribourg/Freiburg","pos": {"lat": 46.803143,"lng": 7.151048}},"arrival": {"time": 1629975300,"schedule_time": 1629975300,"track": "","schedule_track": "","valid": true,"reason": "SCHEDULE"},"departure": {"time": 1629975360,"schedule_time": 1629975360,"track": "","schedule_track": "","valid": true,"reason": "SCHEDULE"},"exit": false,"enter": false},{"station": {"id": "8501120:0:5","name": "Lausanne","pos": {"lat": 46.516796,"lng": 6.62909}},"arrival": {"time": 1629978000,"schedule_time": 1629978000,"track": "","schedule_track": "","valid": true,"reason": "SCHEDULE"},"departure": {"time": 1629978120,"schedule_time": 1629978120,"track": "","schedule_track": "","valid": true,"reason": "SCHEDULE"},"exit": false,"enter": false},{"station": {"id": "8501008:0:3","name": "Gen\u00E8ve","pos": {"lat": 46.210209,"lng": 6.142455}},"arrival": {"time": 1629980280,"schedule_time": 1629980280,"track": "","schedule_track": "","valid": true,"reason": "SCHEDULE"},"departure": {"time": 1629980400,"schedule_time": 1629980400,"track": "","schedule_track": "","valid": true,"reason": "SCHEDULE"},"exit": false,"enter": false},{"station": {"id": "8587057","name": "Gen\u00E8ve, Cornavin","pos": {"lat": 46.209736,"lng": 6.142437}},"arrival": {"time": 1629980520,"schedule_time": 1629980520,"track": "","schedule_track": "","valid": true,"reason": "SCHEDULE"},"departure": {"time": 1629980760,"schedule_time": 1629980760,"track": "","schedule_track": "","valid": true,"reason": "SCHEDULE"},"exit": false,"enter": false},{"station": {"id": "8592801","name": "Gen\u00E8ve, Chantepoulet","pos": {"lat": 46.208153,"lng": 6.143551}},"arrival": {"time": 1629980880,"schedule_time": 1629980880,"track": "","schedule_track": "","valid": true,"reason": "SCHEDULE"},"departure": {"time": 1629980880,"schedule_time": 1629980880,"track": "","schedule_track": "","valid": true,"reason": "SCHEDULE"},"exit": false,"enter": false},{"station": {"id": "8592864","name": "Gen\u00E8ve, Mont-Blanc","pos": {"lat": 46.207214,"lng": 6.147037}},"arrival": {"time": 1629980940,"schedule_time": 1629980940,"track": "","schedule_track": "","valid": true,"reason": "SCHEDULE"},"departure": {"time": 1629980940,"schedule_time": 1629980940,"track": "","schedule_track": "","valid": true,"reason": "SCHEDULE"},"exit": false,"enter": false},{"station": {"id": "8592856","name": "Gen\u00E8ve, M\u00E9tropole","pos": {"lat": 46.2034,"lng": 6.15152}},"arrival": {"time": 1629981120,"schedule_time": 1629981120,"track": "","schedule_track": "","valid": true,"reason": "SCHEDULE"},"departure": {"time": 1629981120,"schedule_time": 1629981120,"track": "","schedule_track": "","valid": true,"reason": "SCHEDULE"},"exit": false,"enter": false},{"station": {"id": "8587061","name": "Gen\u00E8ve, Rive","pos": {"lat": 46.201866,"lng": 6.152813}},"arrival": {"time": 1629981180,"schedule_time": 1629981180,"track": "","schedule_track": "","valid": true,"reason": "SCHEDULE"},"departure": {"time": 1629981180,"schedule_time": 1629981180,"track": "","schedule_track": "","valid": true,"reason": "SCHEDULE"},"exit": false,"enter": false},{"station": {"id": "8587097","name": "V\u00E9senaz, village","pos": {"lat": 46.239399,"lng": 6.197513}},"arrival": {"time": 1629983100,"schedule_time": 1629983100,"track": "","schedule_track": "","valid": true,"reason": "SCHEDULE"},"departure": {"time": 1629983100,"schedule_time": 1629983100,"track": "","schedule_track": "","valid": true,"reason": "SCHEDULE"},"exit": false,"enter": false},{"station": {"id": "8587071","name": "V\u00E9senaz, Pallanterie","pos": {"lat": 46.247944,"lng": 6.216468}},"arrival": {"time": 1629983220,"schedule_time": 1629983220,"track": "","schedule_track": "","valid": true,"reason": "SCHEDULE"},"departure": {"time": 1629983220,"schedule_time": 1629983220,"track": "","schedule_track": "","valid": true,"reason": "SCHEDULE"},"exit": false,"enter": false},{"station": {"id": "8592762","name": "Corsier GE, Le Soleil","pos": {"lat": 46.259575,"lng": 6.228324}},"arrival": {"time": 1629983280,"schedule_time": 1629983280,"track": "","schedule_track": "","valid": true,"reason": "SCHEDULE"},"departure": {"time": 1629983280,"schedule_time": 1629983280,"track": "","schedule_track": "","valid": true,"reason": "SCHEDULE"},"exit": false,"enter": false},{"station": {"id": "8592624","name": "Ani\u00E8res, douane","pos": {"lat": 46.268379,"lng": 6.237955}},"arrival": {"time": 1629983460,"schedule_time": 1629983460,"track": "","schedule_track": "","valid": true,"reason": "SCHEDULE"},"departure": {"time": 1629983460,"schedule_time": 1629983460,"track": "","schedule_track": "","valid": true,"reason": "SCHEDULE"},"exit": false,"enter": false},{"station": {"id": "1401326","name": "Veigy, Douane (F)","pos": {"lat": 46.276421,"lng": 6.246588}},"arrival": {"time": 1629983640,"schedule_time": 1629983640,"track": "","schedule_track": "","valid": true,"reason": "SCHEDULE"},"departure": {"time": 1629983640,"schedule_time": 1629983640,"track": "","schedule_track": "","valid": true,"reason": "SCHEDULE"},"exit": false,"enter": false},{"station": {"id": "1401618","name": "Veigy-Foncenex, P. Verte Z 200","pos": {"lat": 46.284256,"lng": 6.261042}},"arrival": {"time": 1629983760,"schedule_time": 1629983760,"track": "","schedule_track": "","valid": true,"reason": "SCHEDULE"},"departure": {"time": 1629983760,"schedule_time": 1629983760,"track": "","schedule_track": "","valid": true,"reason": "SCHEDULE"},"exit": false,"enter": false},{"station": {"id": "1400606","name": "Douvaine, Aubonne","pos": {"lat": 46.300938,"lng": 6.285575}},"arrival": {"time": 1629984060,"schedule_time": 1629984060,"track": "","schedule_track": "","valid": true,"reason": "SCHEDULE"},"departure": {"time": 1629984060,"schedule_time": 1629984060,"track": "","schedule_track": "","valid": true,"reason": "SCHEDULE"},"exit": false,"enter": false},{"station": {"id": "1400038","name": "Douvaine, \u00E9glise","pos": {"lat": 46.30492,"lng": 6.299337}},"arrival": {"time": 1629984240,"schedule_time": 1629984240,"track": "","schedule_track": "","valid": true,"reason": "SCHEDULE"},"departure": {"time": 1629984240,"schedule_time": 1629984240,"track": "","schedule_track": "","valid": true,"reason": "SCHEDULE"},"exit": false,"enter": false},{"station": {"id": "1400608","name": "Douvaine, Mairie","pos": {"lat": 46.306152,"lng": 6.302499}},"arrival": {"time": 1629984360,"schedule_time": 1629984360,"track": "","schedule_track": "","valid": true,"reason": "SCHEDULE"},"departure": {"time": 1629984360,"schedule_time": 1629984360,"track": "","schedule_track": "","valid": true,"reason": "SCHEDULE"},"exit": false,"enter": false},{"station": {"id": "1400036","name": "Douvaine, Champ De Place","pos": {"lat": 46.308254,"lng": 6.310028}},"arrival": {"time": 1629984480,"schedule_time": 1629984480,"track": "","schedule_track": "","valid": true,"reason": "SCHEDULE"},"departure": {"time": 1629984480,"schedule_time": 1629984480,"track": "","schedule_track": "","valid": true,"reason": "SCHEDULE"},"exit": false,"enter": false},{"station": {"id": "1400847","name": "Massongy, Chef Lieu","pos": {"lat": 46.318867,"lng": 6.331012}},"arrival": {"time": 1629984600,"schedule_time": 1629984600,"track": "","schedule_track": "","valid": true,"reason": "SCHEDULE"},"departure": {"time": 1629984600,"schedule_time": 1629984600,"track": "","schedule_track": "","valid": true,"reason": "SCHEDULE"},"exit": false,"enter": false},{"station": {"id": "1400032","name": "Sciez, Filly","pos": {"lat": 46.326691,"lng": 6.357395}},"arrival": {"time": 1629984720,"schedule_time": 1629984720,"track": "","schedule_track": "","valid": true,"reason": "SCHEDULE"},"departure": {"time": 1629984720,"schedule_time": 1629984720,"track": "","schedule_track": "","valid": true,"reason": "SCHEDULE"},"exit": false,"enter": false},{"station": {"id": "1401095","name": "Sciez, Chef Lieu","pos": {"lat": 46.331886,"lng": 6.373871}},"arrival": {"time": 1629984840,"schedule_time": 1629984840,"track": "","schedule_track": "","valid": true,"reason": "SCHEDULE"},"departure": {"time": 1629984840,"schedule_time": 1629984840,"track": "","schedule_track": "","valid": true,"reason": "SCHEDULE"},"exit": false,"enter": false},{"station": {"id": "1401093","name": "Sciez, Bonnatrait","pos": {"lat": 46.333008,"lng": 6.385558}},"arrival": {"time": 1629985080,"schedule_time": 1629985080,"track": "","schedule_track": "","valid": true,"reason": "SCHEDULE"},"departure": {"time": 1629985080,"schedule_time": 1629985080,"track": "","schedule_track": "","valid": true,"reason": "SCHEDULE"},"exit": false,"enter": false},{"station": {"id": "1400030","name": "Sciez,Bonnatrait Route Du Port","pos": {"lat": 46.33477,"lng": 6.394433}},"arrival": {"time": 1629985200,"schedule_time": 1629985200,"track": "","schedule_track": "","valid": true,"reason": "SCHEDULE"},"departure": {"time": 1629985200,"schedule_time": 1629985200,"track": "","schedule_track": "","valid": true,"reason": "SCHEDULE"},"exit": false,"enter": false},{"station": {"id": "1400028","name": "Sciez, Le Content","pos": {"lat": 46.335499,"lng": 6.397766}},"arrival": {"time": 1629985260,"schedule_time": 1629985260,"track": "","schedule_track": "","valid": true,"reason": "SCHEDULE"},"departure": {"time": 1629985260,"schedule_time": 1629985260,"track": "","schedule_track": "","valid": true,"reason": "SCHEDULE"},"exit": false,"enter": false},{"station": {"id": "1400026","name": "Sciez, Jussy","pos": {"lat": 46.338154,"lng": 6.403829}},"arrival": {"time": 1629985320,"schedule_time": 1629985320,"track": "","schedule_track": "","valid": true,"reason": "SCHEDULE"},"departure": {"time": 1629985320,"schedule_time": 1629985320,"track": "","schedule_track": "","valid": true,"reason": "SCHEDULE"},"exit": false,"enter": false},{"station": {"id": "1400839","name": "Margencel, Cinq Chemins","pos": {"lat": 46.344101,"lng": 6.415265}},"arrival": {"time": 1629985440,"schedule_time": 1629985440,"track": "","schedule_track": "","valid": true,"reason": "SCHEDULE"},"departure": {"time": 1629985440,"schedule_time": 1629985440,"track": "","schedule_track": "","valid": true,"reason": "SCHEDULE"},"exit": false,"enter": false},{"station": {"id": "1400024","name": "Thonon-l-Bains,Crois\u00E9e d'Anthy","pos": {"lat": 46.352539,"lng": 6.439789}},"arrival": {"time": 1629985560,"schedule_time": 1629985560,"track": "","schedule_track": "","valid": true,"reason": "SCHEDULE"},"departure": {"time": 1629985560,"schedule_time": 1629985560,"track": "","schedule_track": "","valid": true,"reason": "SCHEDULE"},"exit": false,"enter": false},{"station": {"id": "1400022","name": "Thonon-les-Bains, L\u00E9troz","pos": {"lat": 46.358604,"lng": 6.452356}},"arrival": {"time": 1629985680,"schedule_time": 1629985680,"track": "","schedule_track": "","valid": true,"reason": "SCHEDULE"},"departure": {"time": 1629985680,"schedule_time": 1629985680,"track": "","schedule_track": "","valid": true,"reason": "SCHEDULE"},"exit": false,"enter": false},{"station": {"id": "1400040","name": "Thonon-l-Bains, Grangette \u00E9gl","pos": {"lat": 46.362488,"lng": 6.460342}},"arrival": {"time": 1629985800,"schedule_time": 1629985800,"track": "","schedule_track": "","valid": true,"reason": "SCHEDULE"},"departure": {"time": 1629985800,"schedule_time": 1629985800,"track": "","schedule_track": "","valid": true,"reason": "SCHEDULE"},"exit": false,"enter": false},{"station": {"id": "1400020","name": "Thonon-les-Bain, J.J. Rousseau","pos": {"lat": 46.366283,"lng": 6.468256}},"arrival": {"time": 1629985860,"schedule_time": 1629985860,"track": "","schedule_track": "","valid": true,"reason": "SCHEDULE"},"departure": {"time": 1629985860,"schedule_time": 1629985860,"track": "","schedule_track": "","valid": true,"reason": "SCHEDULE"},"exit": false,"enter": false},{"station": {"id": "1400018","name": "Th\u00F4non-les-Bains, Philosophes","pos": {"lat": 46.367901,"lng": 6.471886}},"arrival": {"time": 1629985920,"schedule_time": 1629985920,"track": "","schedule_track": "","valid": true,"reason": "SCHEDULE"},"departure": {"time": 1629985920,"schedule_time": 1629985920,"track": "","schedule_track": "","valid": true,"reason": "SCHEDULE"},"exit": false,"enter": false},{"station": {"id": "1400016","name": "Th\u00F4non-les-Bains, Pr\u00E9 Cergues","pos": {"lat": 46.367413,"lng": 6.476943}},"arrival": {"time": 1629985980,"schedule_time": 1629985980,"track": "","schedule_track": "","valid": true,"reason": "SCHEDULE"},"departure": {"time": 1629985980,"schedule_time": 1629985980,"track": "","schedule_track": "","valid": true,"reason": "SCHEDULE"},"exit": false,"enter": false},{"station": {"id": "1401273","name": "Thonon-les-Bains, Pl des Arts","pos": {"lat": 46.370487,"lng": 6.480492}},"arrival": {"time": 1629986040,"schedule_time": 1629986040,"track": "","schedule_track": "","valid": true,"reason": "SCHEDULE"},"departure": {"time": 1629504000,"schedule_time": 1629504000,"track": "","schedule_track": "","valid": true,"reason": "SCHEDULE"},"exit": false,"enter": false},{"station": {"id": "1400748","name": "Thonon-les-Bains, Tribunal","pos": {"lat": 46.368568,"lng": 6.479854}},"arrival": {"time": 1629987240,"schedule_time": 1629987240,"track": "","schedule_track": "","valid": true,"reason": "SCHEDULE"},"departure": {"time": 1629987240,"schedule_time": 1629987240,"track": "","schedule_track": "","valid": true,"reason": "SCHEDULE"},"exit": false,"enter": false},{"station": {"id": "1400016","name": "Th\u00F4non-les-Bains, Pr\u00E9 Cergues","pos": {"lat": 46.367413,"lng": 6.476943}},"arrival": {"time": 1629987300,"schedule_time": 1629987300,"track": "","schedule_track": "","valid": true,"reason": "SCHEDULE"},"departure": {"time": 1629987300,"schedule_time": 1629987300,"track": "","schedule_track": "","valid": true,"reason": "SCHEDULE"},"exit": false,"enter": false},{"station": {"id": "1400680","name": "Thonon-les-Bains, Liberation","pos": {"lat": 46.366741,"lng": 6.477707}},"arrival": {"time": 1629987300,"schedule_time": 1629987300,"track": "","schedule_track": "","valid": true,"reason": "SCHEDULE"},"departure": {"time": 1629987300,"schedule_time": 1629987300,"track": "","schedule_track": "","valid": true,"reason": "SCHEDULE"},"exit": false,"enter": false},{"station": {"id": "1400495","name": "Thonon-les-Bains, Sacre Coeur","pos": {"lat": 46.364624,"lng": 6.478416}},"arrival": {"time": 1629987360,"schedule_time": 1629987360,"track": "","schedule_track": "","valid": true,"reason": "SCHEDULE"},"departure": {"time": 1629987360,"schedule_time": 1629987360,"track": "","schedule_track": "","valid": true,"reason": "SCHEDULE"},"exit": false,"enter": false},{"station": {"id": "1400796","name": "\u00C9vian-les-Bains, Ferroliannes","pos": {"lat": 46.39077,"lng": 6.574707}},"arrival": {"time": 1629987420,"schedule_time": 1629987420,"track": "","schedule_track": "","valid": true,"reason": "SCHEDULE"},"departure": {"time": 1629987420,"schedule_time": 1629987420,"track": "","schedule_track": "","valid": true,"reason": "SCHEDULE"},"exit": false,"enter": false},{"station": {"id": "1400654","name": "Thonon-les-Bains, Tassigny","pos": {"lat": 46.361614,"lng": 6.4782}},"arrival": {"time": 1629987420,"schedule_time": 1629987420,"track": "","schedule_track": "","valid": true,"reason": "SCHEDULE"},"departure": {"time": 1629987420,"schedule_time": 1629987420,"track": "","schedule_track": "","valid": true,"reason": "SCHEDULE"},"exit": false,"enter": false},{"station": {"id": "1400698","name": "Thonon-les-Bains, Hopital","pos": {"lat": 46.359142,"lng": 6.478174}},"arrival": {"time": 1629987480,"schedule_time": 1629987480,"track": "","schedule_track": "","valid": true,"reason": "SCHEDULE"},"departure": {"time": 1629987480,"schedule_time": 1629987480,"track": "","schedule_track": "","valid": true,"reason": "SCHEDULE"},"exit": false,"enter": false},{"station": {"id": "1400625","name": "Publier, Village","pos": {"lat": 46.387455,"lng": 6.543544}},"arrival": {"time": 1629987600,"schedule_time": 1629987600,"track": "","schedule_track": "","valid": true,"reason": "SCHEDULE"},"departure": {"time": 1629987600,"schedule_time": 1629987600,"track": "","schedule_track": "","valid": true,"reason": "SCHEDULE"},"exit": false,"enter": false},{"station": {"id": "1400477","name": "Neuvecelle, Milly","pos": {"lat": 46.393574,"lng": 6.604648}},"arrival": {"time": 1629987960,"schedule_time": 1629987960,"track": "","schedule_track": "","valid": true,"reason": "SCHEDULE"},"departure": {"time": 1629987960,"schedule_time": 1629987960,"track": "","schedule_track": "","valid": true,"reason": "SCHEDULE"},"exit": false,"enter": false},{"station": {"id": "1400768","name": "Neuvecelle, Moulin A Poivre","pos": {"lat": 46.392292,"lng": 6.601153}},"arrival": {"time": 1629988080,"schedule_time": 1629988080,"track": "","schedule_track": "","valid": true,"reason": "SCHEDULE"},"departure": {"time": 1629988080,"schedule_time": 1629988080,"track": "","schedule_track": "","valid": true,"reason": "SCHEDULE"},"exit": false,"enter": false},{"station": {"id": "1400623","name": "Publier, Avonnex","pos": {"lat": 46.384842,"lng": 6.527491}},"arrival": {"time": 1629988080,"schedule_time": 1629988080,"track": "","schedule_track": "","valid": true,"reason": "SCHEDULE"},"departure": {"time": 1629988080,"schedule_time": 1629988080,"track": "","schedule_track": "","valid": true,"reason": "SCHEDULE"},"exit": false,"enter": false},{"station": {"id": "1401242","name": "Marin, Frezier","pos": {"lat": 46.38364,"lng": 6.524069}},"arrival": {"time": 1629988140,"schedule_time": 1629988140,"track": "","schedule_track": "","valid": true,"reason": "SCHEDULE"},"departure": {"time": 1629988140,"schedule_time": 1629988140,"track": "","schedule_track": "","valid": true,"reason": "SCHEDULE"},"exit": false,"enter": false},{"station": {"id": "1400459","name": "Marin, Sussinges","pos": {"lat": 46.383308,"lng": 6.521419}},"arrival": {"time": 1629988200,"schedule_time": 1629988200,"track": "","schedule_track": "","valid": true,"reason": "SCHEDULE"},"departure": {"time": 1629988200,"schedule_time": 1629988200,"track": "","schedule_track": "","valid": true,"reason": "SCHEDULE"},"exit": false,"enter": false},{"station": {"id": "1400084","name": "St Paul En Chablais, Poese","pos": {"lat": 46.381084,"lng": 6.622784}},"arrival": {"time": 1629988260,"schedule_time": 1629988260,"track": "","schedule_track": "","valid": true,"reason": "SCHEDULE"},"departure": {"time": 1629988260,"schedule_time": 1629988260,"track": "","schedule_track": "","valid": true,"reason": "SCHEDULE"},"exit": false,"enter": false},{"station": {"id": "1400103","name": "St Paul En Chablais, Chef Lieu","pos": {"lat": 46.379234,"lng": 6.629234}},"arrival": {"time": 1629988320,"schedule_time": 1629988320,"track": "","schedule_track": "","valid": true,"reason": "SCHEDULE"},"departure": {"time": 1629988320,"schedule_time": 1629988320,"track": "","schedule_track": "","valid": true,"reason": "SCHEDULE"},"exit": false,"enter": false},{"station": {"id": "1400734","name": "Marin, Hotel F1","pos": {"lat": 46.382435,"lng": 6.508465}},"arrival": {"time": 1629988380,"schedule_time": 1629988380,"track": "","schedule_track": "","valid": true,"reason": "SCHEDULE"},"departure": {"time": 1629988380,"schedule_time": 1629988380,"track": "","schedule_track": "","valid": true,"reason": "SCHEDULE"},"exit": false,"enter": false},{"station": {"id": "1400371","name": "Thonon-les-Bains, Vongy Eglise","pos": {"lat": 46.382923,"lng": 6.505267}},"arrival": {"time": 1629988440,"schedule_time": 1629988440,"track": "","schedule_track": "","valid": true,"reason": "SCHEDULE"},"departure": {"time": 1629988440,"schedule_time": 1629988440,"track": "","schedule_track": "","valid": true,"reason": "SCHEDULE"},"exit": false,"enter": false},{"station": {"id": "1400375","name": "St Paul En Chablais, La Foully","pos": {"lat": 46.36795,"lng": 6.61753}},"arrival": {"time": 1629988440,"schedule_time": 1629988440,"track": "","schedule_track": "","valid": true,"reason": "SCHEDULE"},"departure": {"time": 1629988440,"schedule_time": 1629988440,"track": "","schedule_track": "","valid": true,"reason": "SCHEDULE"},"exit": false,"enter": false},{"station": {"id": "1400706","name": "Thonon-les-Bains, Chat.Thuyset","pos": {"lat": 46.381241,"lng": 6.498377}},"arrival": {"time": 1629988500,"schedule_time": 1629988500,"track": "","schedule_track": "","valid": true,"reason": "SCHEDULE"},"departure": {"time": 1629988500,"schedule_time": 1629988500,"track": "","schedule_track": "","valid": true,"reason": "SCHEDULE"},"exit": false,"enter": false},{"station": {"id": "1400501","name": "Thonon-les-Bains, Shop. Leman","pos": {"lat": 46.379898,"lng": 6.496356}},"arrival": {"time": 1629988560,"schedule_time": 1629988560,"track": "","schedule_track": "","valid": true,"reason": "SCHEDULE"},"departure": {"time": 1629988560,"schedule_time": 1629988560,"track": "","schedule_track": "","valid": true,"reason": "SCHEDULE"},"exit": false,"enter": false},{"station": {"id": "1400776","name": "Thonon-les-Bains, College Cham","pos": {"lat": 46.37933,"lng": 6.494667}},"arrival": {"time": 1629988560,"schedule_time": 1629988560,"track": "","schedule_track": "","valid": true,"reason": "SCHEDULE"},"departure": {"time": 1629988560,"schedule_time": 1629988560,"track": "","schedule_track": "","valid": true,"reason": "SCHEDULE"},"exit": false,"enter": false},{"station": {"id": "1400682","name": "Thonon-les-Bains, Pres Verts","pos": {"lat": 46.379696,"lng": 6.492933}},"arrival": {"time": 1629988620,"schedule_time": 1629988620,"track": "","schedule_track": "","valid": true,"reason": "SCHEDULE"},"departure": {"time": 1629988620,"schedule_time": 1629988620,"track": "","schedule_track": "","valid": true,"reason": "SCHEDULE"},"exit": false,"enter": false},{"station": {"id": "1400646","name": "Thonon-les-Bains, Cim.De Thon.","pos": {"lat": 46.376534,"lng": 6.491801}},"arrival": {"time": 1629988740,"schedule_time": 1629988740,"track": "","schedule_track": "","valid": true,"reason": "SCHEDULE"},"departure": {"time": 1629988740,"schedule_time": 1629988740,"track": "","schedule_track": "","valid": true,"reason": "SCHEDULE"},"exit": false,"enter": false},{"station": {"id": "1400391","name": "Thonon-les-Bains, Aricoques","pos": {"lat": 46.374687,"lng": 6.493436}},"arrival": {"time": 1629988800,"schedule_time": 1629988800,"track": "","schedule_track": "","valid": true,"reason": "SCHEDULE"},"departure": {"time": 1629988800,"schedule_time": 1629988800,"track": "","schedule_track": "","valid": true,"reason": "SCHEDULE"},"exit": false,"enter": false}],"transports": [{"move_type": "Transport","move": {"range": {"from": 0,"to": 8},"category_name": "Bus","category_id": 3,"clasz": 10,"train_nr": 25043,"line_id": "925","name": "Bus 925","provider": "Verkehrsbetriebe Z\u00FCrichsee und Oberland","direction": "Meilen, Bahnhof"}},{"move_type": "Walk","move": {"range": {"from": 8,"to": 9},"mumo_id": 0,"price": 0,"accessibility": 0,"mumo_type": ""}},{"move_type": "Transport","move": {"range": {"from": 9,"to": 11},"category_name": "S","category_id": 0,"clasz": 7,"train_nr": 18740,"line_id": "S7","name": "S7","provider": "Schweizerische Bundesbahnen SBB","direction": "Winterthur"}},{"move_type": "Walk","move": {"range": {"from": 11,"to": 12},"mumo_id": 0,"price": 0,"accessibility": 0,"mumo_type": ""}},{"move_type": "Transport","move": {"range": {"from": 12,"to": 16},"category_name": "IC1","category_id": 20,"clasz": 12,"train_nr": 716,"line_id": "IC1","name": "IC1 716","provider": "Schweizerische Bundesbahnen SBB","direction": "Gen\u00E8ve-A\u00E9roport"}},{"move_type": "Walk","move": {"range": {"from": 16,"to": 17},"mumo_id": 0,"price": 0,"accessibility": 0,"mumo_type": ""}},{"move_type": "Transport","move": {"range": {"from": 17,"to": 21},"category_name": "Bus","category_id": 3,"clasz": 10,"train_nr": 13431,"line_id": "9","name": "Bus 9","provider": "Transports Publics Genevois","direction": "Ch\u00EAne-Bourg, Petit-Bel-Air"}},{"move_type": "Transport","move": {"range": {"from": 21,"to": 46},"category_name": "Bus","category_id": 3,"clasz": 10,"train_nr": 71114,"line_id": "T71","name": "Bus T71","provider": "Transdev Haute Savoie, SARL","direction": "Thonon-les-Bains, Pl des Arts"}},{"move_type": "Transport","move": {"range": {"from": 46,"to": 54},"category_name": "Bus","category_id": 3,"clasz": 10,"train_nr": 66,"line_id": "N","name": "Bus N","provider": "But","direction": "Allinges, Les Chateaux"}},{"move_type": "Transport","move": {"range": {"from": 54,"to": 70},"category_name": "Bus","category_id": 3,"clasz": 10,"train_nr": 209,"line_id": "P","name": "Bus P","provider": "But","direction": "Thonon-les-Bains, Pl des Arts"}}],"trips": [{"range": {"from": 0,"to": 8},"id": {"station_id": "8576101","train_nr": 25043,"time": 1629966300,"target_station_id": "8576080","target_time": 1629968220,"line_id": "925"},"debug": "73.TA.92-925-j21-1.5.H:646787:646787"},{"range": {"from": 9,"to": 11},"id": {"station_id": "8503110:0:1","train_nr": 18740,"time": 1629967140,"target_station_id": "8506000:0:7","target_time": 1629971700,"line_id": "S7"},"debug": "484.TA.91-S07-Z-j21-1.136.R:201125:201125"},{"range": {"from": 12,"to": 16},"id": {"station_id": "8506302:0:1","train_nr": 716,"time": 1629965220,"target_station_id": "8501026:0:4","target_time": 1629980820,"line_id": "IC1"},"debug": "917.TA.91-1-F-j21-1.349.H:56757:56757"},{"range": {"from": 17,"to": 21},"id": {"station_id": "8593173","train_nr": 13431,"time": 1629979620,"target_station_id": "8592711","target_time": 1629982140,"line_id": "9"},"debug": "3005.TA.92-9-A-j21-1.8.R:653658:653658"},{"range": {"from": 21,"to": 46},"id": {"station_id": "8592829","train_nr": 71114,"time": 1629981900,"target_station_id": "1401273","target_time": 1629986040,"line_id": "T71"},"debug": "37.TA.92-T71-j21-1.3.R:714956:714956"},{"range": {"from": 46,"to": 54},"id": {"station_id": "1401273","train_nr": 66,"time": 1629987180,"target_station_id": "1401120","target_time": 1629988500,"line_id": "N"},"debug": "12.TA.92-N-B-j21-1.2.R:712544:712544"},{"range": {"from": 54,"to": 70},"id": {"station_id": "1401624","train_nr": 209,"time": 1629987600,"target_station_id": "1401273","target_time": 1629989160,"line_id": "P"},"debug": "2.TA.92-P-A-j21-1.1.H:713376:713376"}],"attributes": [],"free_texts": [],"problems": [],"night_penalty": 0,"max_occupancy": 1,"db_costs": 0,"status": "OK"},{"stops": [{"station": {"id": "8576087","name": "M\u00E4nnedorf, B\u00FCelen","pos": {"lat": 47.262486,"lng": 8.687086}},"arrival": {"time": 0,"schedule_time": 0,"track": "","schedule_track": "","valid": false,"reason": "SCHEDULE"},"departure": {"time": 1629962040,"schedule_time": 1629962040,"track": "","schedule_track": "","valid": true,"reason": "SCHEDULE"},"exit": true,"enter": true},{"station": {"id": "8503363","name": "Uetikon am See, Kleindorf","pos": {"lat": 47.26429,"lng": 8.682586}},"arrival": {"time": 1629962100,"schedule_time": 1629962100,"track": "","schedule_track": "","valid": true,"reason": "SCHEDULE"},"departure": {"time": 1629962100,"schedule_time": 1629962100,"track": "","schedule_track": "","valid": true,"reason": "SCHEDULE"},"exit": true,"enter": true},{"station": {"id": "8588430","name": "Uetikon am See, Tramstrasse","pos": {"lat": 47.265789,"lng": 8.677357}},"arrival": {"time": 1629962160,"schedule_time": 1629962160,"track": "","schedule_track": "","valid": true,"reason": "SCHEDULE"},"departure": {"time": 1629962160,"schedule_time": 1629962160,"track": "","schedule_track": "","valid": true,"reason": "SCHEDULE"},"exit": true,"enter": true},{"station": {"id": "8576086","name": "Uetikon am See, Grossdorf","pos": {"lat": 47.266457,"lng": 8.674204}},"arrival": {"time": 1629962280,"schedule_time": 1629962280,"track": "","schedule_track": "","valid": true,"reason": "SCHEDULE"},"departure": {"time": 1629962280,"schedule_time": 1629962280,"track": "","schedule_track": "","valid": true,"reason": "SCHEDULE"},"exit": true,"enter": true},{"station": {"id": "8576085","name": "Meilen, Weid","pos": {"lat": 47.266102,"lng": 8.668761}},"arrival": {"time": 1629962340,"schedule_time": 1629962340,"track": "","schedule_track": "","valid": true,"reason": "SCHEDULE"},"departure": {"time": 1629962340,"schedule_time": 1629962340,"track": "","schedule_track": "","valid": true,"reason": "SCHEDULE"},"exit": true,"enter": true},{"station": {"id": "8576084","name": "Meilen, Dollikon","pos": {"lat": 47.264091,"lng": 8.662796}},"arrival": {"time": 1629962400,"schedule_time": 1629962400,"track": "","schedule_track": "","valid": true,"reason": "SCHEDULE"},"departure": {"time": 1629962400,"schedule_time": 1629962400,"track": "","schedule_track": "","valid": true,"reason": "SCHEDULE"},"exit": true,"enter": true},{"station": {"id": "8576083","name": "Meilen, Obermeilen","pos": {"lat": 47.264847,"lng": 8.654737}},"arrival": {"time": 1629962520,"schedule_time": 1629962520,"track": "","schedule_track": "","valid": true,"reason": "SCHEDULE"},"departure": {"time": 1629962520,"schedule_time": 1629962520,"track": "","schedule_track": "","valid": true,"reason": "SCHEDULE"},"exit": true,"enter": true},{"station": {"id": "8576082","name": "Meilen, Beugen","pos": {"lat": 47.267269,"lng": 8.650713}},"arrival": {"time": 1629962580,"schedule_time": 1629962580,"track": "","schedule_track": "","valid": true,"reason": "SCHEDULE"},"departure": {"time": 1629962580,"schedule_time": 1629962580,"track": "","schedule_track": "","valid": true,"reason": "SCHEDULE"},"exit": false,"enter": false},{"station": {"id": "8576080","name": "Meilen, Bahnhof","pos": {"lat": 47.26944,"lng": 8.644883}},"arrival": {"time": 1629962820,"schedule_time": 1629962820,"track": "","schedule_track": "","valid": true,"reason": "SCHEDULE"},"departure": {"time": 1629504000,"schedule_time": 1629504000,"track": "","schedule_track": "","valid": true,"reason": "SCHEDULE"},"exit": false,"enter": false},{"station": {"id": "8503104:0:3","name": "Meilen","pos": {"lat": 47.269817,"lng": 8.644308}},"arrival": {"time": 1629963060,"schedule_time": 1629963060,"track": "","schedule_track": "","valid": true,"reason": "SCHEDULE"},"departure": {"time": 1629963180,"schedule_time": 1629963180,"track": "","schedule_track": "","valid": true,"reason": "SCHEDULE"},"exit": false,"enter": false},{"station": {"id": "8503003:0:1","name": "Z\u00FCrich Stadelhofen","pos": {"lat": 47.366611,"lng": 8.548485}},"arrival": {"time": 1629963840,"schedule_time": 1629963840,"track": "","schedule_track": "","valid": true,"reason": "SCHEDULE"},"departure": {"time": 1629963900,"schedule_time": 1629963900,"track": "","schedule_track": "","valid": true,"reason": "SCHEDULE"},"exit": false,"enter": false},{"station": {"id": "8503000:0:41/42","name": "Z\u00FCrich HB","pos": {"lat": 47.378174,"lng": 8.540212}},"arrival": {"time": 1629964020,"schedule_time": 1629964020,"track": "","schedule_track": "","valid": true,"reason": "SCHEDULE"},"departure": {"time": 1629964140,"schedule_time": 1629964140,"track": "","schedule_track": "","valid": true,"reason": "SCHEDULE"},"exit": false,"enter": false},{"station": {"id": "8503000:0:32","name": "Z\u00FCrich HB","pos": {"lat": 47.378174,"lng": 8.540212}},"arrival": {"time": 1629964260,"schedule_time": 1629964260,"track": "","schedule_track": "","valid": true,"reason": "SCHEDULE"},"departure": {"time": 1629965040,"schedule_time": 1629965040,"track": "","schedule_track": "","valid": true,"reason": "SCHEDULE"},"exit": false,"enter": false},{"station": {"id": "8502113:0:4","name": "Aarau","pos": {"lat": 47.391365,"lng": 8.051276}},"arrival": {"time": 1629966480,"schedule_time": 1629966480,"track": "","schedule_track": "","valid": true,"reason": "SCHEDULE"},"departure": {"time": 1629966600,"schedule_time": 1629966600,"track": "","schedule_track": "","valid": true,"reason": "SCHEDULE"},"exit": false,"enter": false},{"station": {"id": "8500218:0:8","name": "Olten","pos": {"lat": 47.351933,"lng": 7.907699}},"arrival": {"time": 1629967080,"schedule_time": 1629967080,"track": "","schedule_track": "","valid": true,"reason": "SCHEDULE"},"departure": {"time": 1629967200,"schedule_time": 1629967200,"track": "","schedule_track": "","valid": true,"reason": "SCHEDULE"},"exit": false,"enter": false},{"station": {"id": "8500207:0:2","name": "Solothurn","pos": {"lat": 47.204193,"lng": 7.542686}},"arrival": {"time": 1629968160,"schedule_time": 1629968160,"track": "","schedule_track": "","valid": true,"reason": "SCHEDULE"},"departure": {"time": 1629968280,"schedule_time": 1629968280,"track": "","schedule_track": "","valid": true,"reason": "SCHEDULE"},"exit": false,"enter": false},{"station": {"id": "8504300:0:5","name": "Biel/Bienne","pos": {"lat": 47.132893,"lng": 7.242909}},"arrival": {"time": 1629969180,"schedule_time": 1629969180,"track": "","schedule_track": "","valid": true,"reason": "SCHEDULE"},"departure": {"time": 1629969360,"schedule_time": 1629969360,"track": "","schedule_track": "","valid": true,"reason": "SCHEDULE"},"exit": false,"enter": false},{"station": {"id": "8504221:0:3","name": "Neuch\u00E2tel","pos": {"lat": 46.996731,"lng": 6.935704}},"arrival": {"time": 1629970320,"schedule_time": 1629970320,"track": "","schedule_track": "","valid": true,"reason": "SCHEDULE"},"departure": {"time": 1629970440,"schedule_time": 1629970440,"track": "","schedule_track": "","valid": true,"reason": "SCHEDULE"},"exit": false,"enter": false},{"station": {"id": "8504200:0:2","name": "Yverdon-les-Bains","pos": {"lat": 46.781544,"lng": 6.640939}},"arrival": {"time": 1629971520,"schedule_time": 1629971520,"track": "","schedule_track": "","valid": true,"reason": "SCHEDULE"},"departure": {"time": 1629971580,"schedule_time": 1629971580,"track": "","schedule_track": "","valid": true,"reason": "SCHEDULE"},"exit": false,"enter": false},{"station": {"id": "8501112:0:3","name": "Chavornay","pos": {"lat": 46.710083,"lng": 6.568167}},"arrival": {"time": 1629972240,"schedule_time": 1629972240,"track": "","schedule_track": "","valid": true,"reason": "SCHEDULE"},"departure": {"time": 1629972240,"schedule_time": 1629972240,"track": "","schedule_track": "","valid": true,"reason": "SCHEDULE"},"exit": false,"enter": false},{"station": {"id": "8501115:0:2","name": "Cossonay-Penthalaz","pos": {"lat": 46.606007,"lng": 6.523691}},"arrival": {"time": 1629972720,"schedule_time": 1629972720,"track": "","schedule_track": "","valid": true,"reason": "SCHEDULE"},"departure": {"time": 1629972720,"schedule_time": 1629972720,"track": "","schedule_track": "","valid": true,"reason": "SCHEDULE"},"exit": false,"enter": false},{"station": {"id": "8501117:0:3","name": "Bussigny","pos": {"lat": 46.547588,"lng": 6.551827}},"arrival": {"time": 1629972960,"schedule_time": 1629972960,"track": "","schedule_track": "","valid": true,"reason": "SCHEDULE"},"departure": {"time": 1629972960,"schedule_time": 1629972960,"track": "","schedule_track": "","valid": true,"reason": "SCHEDULE"},"exit": false,"enter": false},{"station": {"id": "8501118:0:4","name": "Renens VD","pos": {"lat": 46.537037,"lng": 6.578938}},"arrival": {"time": 1629973200,"schedule_time": 1629973200,"track": "","schedule_track": "","valid": true,"reason": "SCHEDULE"},"departure": {"time": 1629973200,"schedule_time": 1629973200,"track": "","schedule_track": "","valid": true,"reason": "SCHEDULE"},"exit": false,"enter": false},{"station": {"id": "8501120:0:1","name": "Lausanne","pos": {"lat": 46.516796,"lng": 6.62909}},"arrival": {"time": 1629973680,"schedule_time": 1629973680,"track": "","schedule_track": "","valid": true,"reason": "SCHEDULE"},"departure": {"time": 1629973800,"schedule_time": 1629973800,"track": "","schedule_track": "","valid": true,"reason": "SCHEDULE"},"exit": false,"enter": false},{"station": {"id": "8501121:0:2","name": "Pully","pos": {"lat": 46.510925,"lng": 6.659472}},"arrival": {"time": 1629973980,"schedule_time": 1629973980,"track": "","schedule_track": "","valid": true,"reason": "SCHEDULE"},"departure": {"time": 1629973980,"schedule_time": 1629973980,"track": "","schedule_track": "","valid": true,"reason": "SCHEDULE"},"exit": false,"enter": false},{"station": {"id": "8501122:0:2","name": "Lutry","pos": {"lat": 46.503784,"lng": 6.690608}},"arrival": {"time": 1629974100,"schedule_time": 1629974100,"track": "","schedule_track": "","valid": true,"reason": "SCHEDULE"},"departure": {"time": 1629974100,"schedule_time": 1629974100,"track": "","schedule_track": "","valid": true,"reason": "SCHEDULE"},"exit": false,"enter": false},{"station": {"id": "8501123:0:2","name": "Villette VD","pos": {"lat": 46.495342,"lng": 6.707289}},"arrival": {"time": 1629974220,"schedule_time": 1629974220,"track": "","schedule_track": "","valid": true,"reason": "SCHEDULE"},"departure": {"time": 1629974220,"schedule_time": 1629974220,"track": "","schedule_track": "","valid": true,"reason": "SCHEDULE"},"exit": false,"enter": false},{"station": {"id": "8501124:0:1","name": "Cully","pos": {"lat": 46.488564,"lng": 6.72715}},"arrival": {"time": 1629974400,"schedule_time": 1629974400,"track": "","schedule_track": "","valid": true,"reason": "SCHEDULE"},"departure": {"time": 1629974400,"schedule_time": 1629974400,"track": "","schedule_track": "","valid": true,"reason": "SCHEDULE"},"exit": false,"enter": false},{"station": {"id": "8501125:0:1","name": "Epesses","pos": {"lat": 46.48933,"lng": 6.745162}},"arrival": {"time": 1629974460,"schedule_time": 1629974460,"track": "","schedule_track": "","valid": true,"reason": "SCHEDULE"},"departure": {"time": 1629974460,"schedule_time": 1629974460,"track": "","schedule_track": "","valid": true,"reason": "SCHEDULE"},"exit": false,"enter": false},{"station": {"id": "8501126:0:1","name": "Rivaz","pos": {"lat": 46.474209,"lng": 6.784598}},"arrival": {"time": 1629974700,"schedule_time": 1629974700,"track": "","schedule_track": "","valid": true,"reason": "SCHEDULE"},"departure": {"time": 1629974700,"schedule_time": 1629974700,"track": "","schedule_track": "","valid": true,"reason": "SCHEDULE"},"exit": false,"enter": false},{"station": {"id": "8501243","name": "Rivaz-St-Saphorin (lac)","pos": {"lat": 46.473602,"lng": 6.784032}},"arrival": {"time": 1629974940,"schedule_time": 1629974940,"track": "","schedule_track": "","valid": true,"reason": "SCHEDULE"},"departure": {"time": 1629975900,"schedule_time": 1629975900,"track": "","schedule_track": "","valid": true,"reason": "SCHEDULE"},"exit": false,"enter": false},{"station": {"id": "8501317","name": "Cully (lac)","pos": {"lat": 46.487473,"lng": 6.731615}},"arrival": {"time": 1629976800,"schedule_time": 1629976800,"track": "","schedule_track": "","valid": true,"reason": "SCHEDULE"},"departure": {"time": 1629976800,"schedule_time": 1629976800,"track": "","schedule_track": "","valid": true,"reason": "SCHEDULE"},"exit": false,"enter": false},{"station": {"id": "8501318","name": "Lutry (lac)","pos": {"lat": 46.501221,"lng": 6.68405}},"arrival": {"time": 1629977700,"schedule_time": 1629977700,"track": "","schedule_track": "","valid": true,"reason": "SCHEDULE"},"departure": {"time": 1629977700,"schedule_time": 1629977700,"track": "","schedule_track": "","valid": true,"reason": "SCHEDULE"},"exit": false,"enter": false},{"station": {"id": "8501319","name": "Pully (lac)","pos": {"lat": 46.505402,"lng": 6.661304}},"arrival": {"time": 1629978120,"schedule_time": 1629978120,"track": "","schedule_track": "","valid": true,"reason": "SCHEDULE"},"departure": {"time": 1629978120,"schedule_time": 1629978120,"track": "","schedule_track": "","valid": true,"reason": "SCHEDULE"},"exit": false,"enter": false},{"station": {"id": "8501075","name": "Lausanne-Ouchy (lac)","pos": {"lat": 46.505665,"lng": 6.626863}},"arrival": {"time": 1629978720,"schedule_time": 1629978720,"track": "","schedule_track": "","valid": true,"reason": "SCHEDULE"},"departure": {"time": 1629504000,"schedule_time": 1629504000,"track": "","schedule_track": "","valid": true,"reason": "SCHEDULE"},"exit": false,"enter": false},{"station": {"id": "8501074","name": "Evian-les-Bains (F) (lac)","pos": {"lat": 46.401596,"lng": 6.594784}},"arrival": {"time": 1629981300,"schedule_time": 1629981300,"track": "","schedule_track": "","valid": true,"reason": "SCHEDULE"},"departure": {"time": 1629504000,"schedule_time": 1629504000,"track": "","schedule_track": "","valid": true,"reason": "SCHEDULE"},"exit": false,"enter": false},{"station": {"id": "1400437","name": "\u00C9vian-les-Bains, Embarcadere","pos": {"lat": 46.401451,"lng": 6.594524}},"arrival": {"time": 1629981420,"schedule_time": 1629981420,"track": "","schedule_track": "","valid": true,"reason": "SCHEDULE"},"departure": {"time": 1629983220,"schedule_time": 1629983220,"track": "","schedule_track": "","valid": true,"reason": "SCHEDULE"},"exit": false,"enter": false},{"station": {"id": "1400716","name": "\u00C9vian-les-Bains, Aunieres","pos": {"lat": 46.39938,"lng": 6.6026}},"arrival": {"time": 1629983340,"schedule_time": 1629983340,"track": "","schedule_track": "","valid": true,"reason": "SCHEDULE"},"departure": {"time": 1629983340,"schedule_time": 1629983340,"track": "","schedule_track": "","valid": true,"reason": "SCHEDULE"},"exit": false,"enter": false},{"station": {"id": "1400770","name": "Neuvecelle, Rond Point De Neu.","pos": {"lat": 46.398876,"lng": 6.610352}},"arrival": {"time": 1629983340,"schedule_time": 1629983340,"track": "","schedule_track": "","valid": true,"reason": "SCHEDULE"},"departure": {"time": 1629983340,"schedule_time": 1629983340,"track": "","schedule_track": "","valid": true,"reason": "SCHEDULE"},"exit": false,"enter": false},{"station": {"id": "1400080","name": "Maxilly/L\u00E9man, Maraiche Carref","pos": {"lat": 46.397717,"lng": 6.614898}},"arrival": {"time": 1629983460,"schedule_time": 1629983460,"track": "","schedule_track": "","valid": true,"reason": "SCHEDULE"},"departure": {"time": 1629983460,"schedule_time": 1629983460,"track": "","schedule_track": "","valid": true,"reason": "SCHEDULE"},"exit": false,"enter": false},{"station": {"id": "1400625","name": "Publier, Village","pos": {"lat": 46.387455,"lng": 6.543544}},"arrival": {"time": 1629983520,"schedule_time": 1629983520,"track": "","schedule_track": "","valid": true,"reason": "SCHEDULE"},"departure": {"time": 1629983520,"schedule_time": 1629983520,"track": "","schedule_track": "","valid": true,"reason": "SCHEDULE"},"exit": false,"enter": false},{"station": {"id": "1400477","name": "Neuvecelle, Milly","pos": {"lat": 46.393574,"lng": 6.604648}},"arrival": {"time": 1629983520,"schedule_time": 1629983520,"track": "","schedule_track": "","valid": true,"reason": "SCHEDULE"},"departure": {"time": 1629983520,"schedule_time": 1629983520,"track": "","schedule_track": "","valid": true,"reason": "SCHEDULE"},"exit": false,"enter": false},{"station": {"id": "1400768","name": "Neuvecelle, Moulin A Poivre","pos": {"lat": 46.392292,"lng": 6.601153}},"arrival": {"time": 1629983640,"schedule_time": 1629983640,"track": "","schedule_track": "","valid": true,"reason": "SCHEDULE"},"departure": {"time": 1629983640,"schedule_time": 1629983640,"track": "","schedule_track": "","valid": true,"reason": "SCHEDULE"},"exit": false,"enter": false},{"station": {"id": "1400623","name": "Publier, Avonnex","pos": {"lat": 46.384842,"lng": 6.527491}},"arrival": {"time": 1629983640,"schedule_time": 1629983640,"track": "","schedule_track": "","valid": true,"reason": "SCHEDULE"},"departure": {"time": 1629983640,"schedule_time": 1629983640,"track": "","schedule_track": "","valid": true,"reason": "SCHEDULE"},"exit": false,"enter": false},{"station": {"id": "1401242","name": "Marin, Frezier","pos": {"lat": 46.38364,"lng": 6.524069}},"arrival": {"time": 1629983700,"schedule_time": 1629983700,"track": "","schedule_track": "","valid": true,"reason": "SCHEDULE"},"departure": {"time": 1629983700,"schedule_time": 1629983700,"track": "","schedule_track": "","valid": true,"reason": "SCHEDULE"},"exit": false,"enter": false},{"station": {"id": "1400459","name": "Marin, Sussinges","pos": {"lat": 46.383308,"lng": 6.521419}},"arrival": {"time": 1629983760,"schedule_time": 1629983760,"track": "","schedule_track": "","valid": true,"reason": "SCHEDULE"},"departure": {"time": 1629983760,"schedule_time": 1629983760,"track": "","schedule_track": "","valid": true,"reason": "SCHEDULE"},"exit": false,"enter": false},{"station": {"id": "1400084","name": "St Paul En Chablais, Poese","pos": {"lat": 46.381084,"lng": 6.622784}},"arrival": {"time": 1629983820,"schedule_time": 1629983820,"track": "","schedule_track": "","valid": true,"reason": "SCHEDULE"},"departure": {"time": 1629983820,"schedule_time": 1629983820,"track": "","schedule_track": "","valid": true,"reason": "SCHEDULE"},"exit": false,"enter": false},{"station": {"id": "1400103","name": "St Paul En Chablais, Chef Lieu","pos": {"lat": 46.379234,"lng": 6.629234}},"arrival": {"time": 1629983880,"schedule_time": 1629983880,"track": "","schedule_track": "","valid": true,"reason": "SCHEDULE"},"departure": {"time": 1629983880,"schedule_time": 1629983880,"track": "","schedule_track": "","valid": true,"reason": "SCHEDULE"},"exit": false,"enter": false},{"station": {"id": "1400734","name": "Marin, Hotel F1","pos": {"lat": 46.382435,"lng": 6.508465}},"arrival": {"time": 1629983940,"schedule_time": 1629983940,"track": "","schedule_track": "","valid": true,"reason": "SCHEDULE"},"departure": {"time": 1629983940,"schedule_time": 1629983940,"track": "","schedule_track": "","valid": true,"reason": "SCHEDULE"},"exit": false,"enter": false},{"station": {"id": "1400371","name": "Thonon-les-Bains, Vongy Eglise","pos": {"lat": 46.382923,"lng": 6.505267}},"arrival": {"time": 1629984000,"schedule_time": 1629984000,"track": "","schedule_track": "","valid": true,"reason": "SCHEDULE"},"departure": {"time": 1629984000,"schedule_time": 1629984000,"track": "","schedule_track": "","valid": true,"reason": "SCHEDULE"},"exit": false,"enter": false},{"station": {"id": "1400375","name": "St Paul En Chablais, La Foully","pos": {"lat": 46.36795,"lng": 6.61753}},"arrival": {"time": 1629984000,"schedule_time": 1629984000,"track": "","schedule_track": "","valid": true,"reason": "SCHEDULE"},"departure": {"time": 1629984000,"schedule_time": 1629984000,"track": "","schedule_track": "","valid": true,"reason": "SCHEDULE"},"exit": false,"enter": false},{"station": {"id": "1400706","name": "Thonon-les-Bains, Chat.Thuyset","pos": {"lat": 46.381241,"lng": 6.498377}},"arrival": {"time": 1629984060,"schedule_time": 1629984060,"track": "","schedule_track": "","valid": true,"reason": "SCHEDULE"},"departure": {"time": 1629984060,"schedule_time": 1629984060,"track": "","schedule_track": "","valid": true,"reason": "SCHEDULE"},"exit": false,"enter": false},{"station": {"id": "1400501","name": "Thonon-les-Bains, Shop. Leman","pos": {"lat": 46.379898,"lng": 6.496356}},"arrival": {"time": 1629984120,"schedule_time": 1629984120,"track": "","schedule_track": "","valid": true,"reason": "SCHEDULE"},"departure": {"time": 1629984120,"schedule_time": 1629984120,"track": "","schedule_track": "","valid": true,"reason": "SCHEDULE"},"exit": false,"enter": false},{"station": {"id": "1400776","name": "Thonon-les-Bains, College Cham","pos": {"lat": 46.37933,"lng": 6.494667}},"arrival": {"time": 1629984120,"schedule_time": 1629984120,"track": "","schedule_track": "","valid": true,"reason": "SCHEDULE"},"departure": {"time": 1629984120,"schedule_time": 1629984120,"track": "","schedule_track": "","valid": true,"reason": "SCHEDULE"},"exit": false,"enter": false},{"station": {"id": "1400682","name": "Thonon-les-Bains, Pres Verts","pos": {"lat": 46.379696,"lng": 6.492933}},"arrival": {"time": 1629984180,"schedule_time": 1629984180,"track": "","schedule_track": "","valid": true,"reason": "SCHEDULE"},"departure": {"time": 1629984180,"schedule_time": 1629984180,"track": "","schedule_track": "","valid": true,"reason": "SCHEDULE"},"exit": false,"enter": false},{"station": {"id": "1400646","name": "Thonon-les-Bains, Cim.De Thon.","pos": {"lat": 46.376534,"lng": 6.491801}},"arrival": {"time": 1629984300,"schedule_time": 1629984300,"track": "","schedule_track": "","valid": true,"reason": "SCHEDULE"},"departure": {"time": 1629984300,"schedule_time": 1629984300,"track": "","schedule_track": "","valid": true,"reason": "SCHEDULE"},"exit": false,"enter": false},{"station": {"id": "1400391","name": "Thonon-les-Bains, Aricoques","pos": {"lat": 46.374687,"lng": 6.493436}},"arrival": {"time": 1629984360,"schedule_time": 1629984360,"track": "","schedule_track": "","valid": true,"reason": "SCHEDULE"},"departure": {"time": 1629984360,"schedule_time": 1629984360,"track": "","schedule_track": "","valid": true,"reason": "SCHEDULE"},"exit": false,"enter": false}],"transports": [{"move_type": "Transport","move": {"range": {"from": 0,"to": 8},"category_name": "Bus","category_id": 3,"clasz": 10,"train_nr": 25035,"line_id": "925","name": "Bus 925","provider": "Verkehrsbetriebe Z\u00FCrichsee und Oberland","direction": "Meilen, Bahnhof"}},{"move_type": "Walk","move": {"range": {"from": 8,"to": 9},"mumo_id": 0,"price": 0,"accessibility": 0,"mumo_type": ""}},{"move_type": "Transport","move": {"range": {"from": 9,"to": 11},"category_name": "S","category_id": 0,"clasz": 7,"train_nr": 18734,"line_id": "S7","name": "S7","provider": "Schweizerische Bundesbahnen SBB","direction": "Winterthur"}},{"move_type": "Walk","move": {"range": {"from": 11,"to": 12},"mumo_id": 0,"price": 0,"accessibility": 0,"mumo_type": ""}},{"move_type": "Transport","move": {"range": {"from": 12,"to": 18},"category_name": "IC5","category_id": 8,"clasz": 12,"train_nr": 516,"line_id": "IC5","name": "IC5 516","provider": "Schweizerische Bundesbahnen SBB","direction": "Gen\u00E8ve-A\u00E9roport"}},{"move_type": "Transport","move": {"range": {"from": 18,"to": 29},"category_name": "S","category_id": 0,"clasz": 7,"train_nr": 24539,"line_id": "S5","name": "S5","provider": "Schweizerische Bundesbahnen SBB","direction": "Aigle"}},{"move_type": "Walk","move": {"range": {"from": 29,"to": 30},"mumo_id": 0,"price": 0,"accessibility": 0,"mumo_type": ""}},{"move_type": "Transport","move": {"range": {"from": 30,"to": 34},"category_name": "Water Transport","category_id": 12,"clasz": 11,"train_nr": 903,"line_id": "BAT","name": "BAT","provider": "CGN SA","direction": "Lausanne-Ouchy (lac)"}},{"move_type": "Transport","move": {"range": {"from": 34,"to": 35},"category_name": "Water Transport","category_id": 12,"clasz": 11,"train_nr": 1113,"line_id": "N1","name": "N1","provider": "CGN SA","direction": "Evian-les-Bains (F) (lac)"}},{"move_type": "Walk","move": {"range": {"from": 35,"to": 36},"mumo_id": 0,"price": 0,"accessibility": 0,"mumo_type": ""}},{"move_type": "Transport","move": {"range": {"from": 36,"to": 56},"category_name": "Bus","category_id": 3,"clasz": 10,"train_nr": 210,"line_id": "P","name": "Bus P","provider": "But","direction": "Thonon-les-Bains, Pl des Arts"}}],"trips": [{"range": {"from": 0,"to": 8},"id": {"station_id": "8576101","train_nr": 25035,"time": 1629960900,"target_station_id": "8576080","target_time": 1629962820,"line_id": "925"},"debug": "42.TA.92-925-j21-1.5.H:646753:646753"},{"range": {"from": 9,"to": 11},"id": {"station_id": "8503110:0:1","train_nr": 18734,"time": 1629961740,"target_station_id": "8506000:0:7","target_time": 1629966300,"line_id": "S7"},"debug": "476.TA.91-S07-Z-j21-1.136.R:201116:201116"},{"range": {"from": 12,"to": 18},"id": {"station_id": "8506302:0:2A-D","train_nr": 516,"time": 1629961080,"target_station_id": "8501026:0:4","target_time": 1629975360,"line_id": "IC5"},"debug": "1242.TA.91-5-B-j21-1.695.H:100312:100312"},{"range": {"from": 18,"to": 29},"id": {"station_id": "8504201:0:1","train_nr": 24539,"time": 1629971580,"target_station_id": "8501400:0:3","target_time": 1629976500,"line_id": "S5"},"debug": "1344.TA.91-5-D-j21-1.563.R:102311:102311"},{"range": {"from": 30,"to": 34},"id": {"station_id": "8501078","train_nr": 903,"time": 1629972000,"target_station_id": "8501075","target_time": 1629978720,"line_id": "BAT"},"debug": "45.TA.94-8-Y-j21-1.21.R:1190535:1190535"},{"range": {"from": 34,"to": 35},"id": {"station_id": "8501075","train_nr": 1113,"time": 1629979200,"target_station_id": "8501074","target_time": 1629981300,"line_id": "N1"},"debug": "21.TA.94-N1-j21-1.1.H:1190901:1190901"},{"range": {"from": 36,"to": 56},"id": {"station_id": "1401624","train_nr": 210,"time": 1629983160,"target_station_id": "1401273","target_time": 1629984720,"line_id": "P"},"debug": "4.TA.92-P-A-j21-1.1.H:713398:713398"}],"attributes": [],"free_texts": [],"problems": [],"night_penalty": 0,"max_occupancy": 2,"db_costs": 0,"status": "OK"}],"interval_begin": 1630424640,"interval_end": 1630424640,"direct_connections": []},"id": 22006}