{"destination": {"type": "Module","target": ""},"content_type": "RoutingResponse","content": {"statistics": [{"category": "raptor","entries": [{"name": "raptor_queries","value": 1},{"name": "raptor_time","value": 1051},{"name": "rec_time","value": 567892},{"name": "total_calculation_time","value": 1621}]}],"connections": [{"stops": [{"station": {"id": "de:02000:10056::100019","name": "Osterbrookplatz","pos": {"lat": 53.547192,"lng": 10.057309}},"arrival": {"time": 0,"schedule_time": 0,"track": "","schedule_track": "","valid": false,"reason": "SCHEDULE"},"departure": {"time": 1633313880,"schedule_time": 1633313880,"track": "","schedule_track": "","valid": true,"reason": "SCHEDULE"},"exit": true,"enter": true},{"station": {"id": "de:02000:10042::100197","name": "Schadesweg","pos": {"lat": 53.54771,"lng": 10.051862}},"arrival": {"time": 1633313940,"schedule_time": 1633313940,"track": "","schedule_track": "","valid": true,"reason": "SCHEDULE"},"departure": {"time": 1633313940,"schedule_time": 1633313940,"track": "","schedule_track": "","valid": true,"reason": "SCHEDULE"},"exit": true,"enter": true},{"station": {"id": "de:02000:10041::100224","name": "Luisenweg","pos": {"lat": 53.548283,"lng": 10.046352}},"arrival": {"time": 1633314000,"schedule_time": 1633314000,"track": "","schedule_track": "","valid": true,"reason": "SCHEDULE"},"departure": {"time": 1633314000,"schedule_time": 1633314000,"track": "","schedule_track": "","valid": true,"reason": "SCHEDULE"},"exit": true,"enter": true},{"station": {"id": "de:02000:10040::100181","name": "Ausschl\u00E4ger Weg (Verkehrsamt)","pos": {"lat": 53.547268,"lng": 10.037441}},"arrival": {"time": 1633314060,"schedule_time": 1633314060,"track": "","schedule_track": "","valid": true,"reason": "SCHEDULE"},"departure": {"time": 1633314060,"schedule_time": 1633314060,"track": "","schedule_track": "","valid": true,"reason": "SCHEDULE"},"exit": true,"enter": true},{"station": {"id": "de:02000:10039::100180","name": "S\u00FCderstra\u00DFe","pos": {"lat": 53.545586,"lng": 10.031322}},"arrival": {"time": 1633314120,"schedule_time": 1633314120,"track": "","schedule_track": "","valid": true,"reason": "SCHEDULE"},"departure": {"time": 1633314120,"schedule_time": 1633314120,"track": "","schedule_track": "","valid": true,"reason": "SCHEDULE"},"exit": false,"enter": false},{"station": {"id": "de:02000:10038::100207","name": "S Hammerbrook (S\u00FCd)","pos": {"lat": 53.545261,"lng": 10.025023}},"arrival": {"time": 1633314180,"schedule_time": 1633314180,"track": "","schedule_track": "","valid": true,"reason": "SCHEDULE"},"departure": {"time": 1633314180,"schedule_time": 1633314180,"track": "","schedule_track": "","valid": true,"reason": "SCHEDULE"},"exit": false,"enter": false},{"station": {"id": "de:02000:10060::100030","name": "S Hammerbrook (Nord)","pos": {"lat": 53.547825,"lng": 10.022971}},"arrival": {"time": 1633314300,"schedule_time": 1633314300,"track": "","schedule_track": "","valid": true,"reason": "SCHEDULE"},"departure": {"time": 1633314300,"schedule_time": 1633314300,"track": "","schedule_track": "","valid": true,"reason": "SCHEDULE"},"exit": false,"enter": false},{"station": {"id": "de:02000:10058::100027","name": "Albertstra\u00DFe","pos": {"lat": 53.548969,"lng": 10.019046}},"arrival": {"time": 1633314360,"schedule_time": 1633314360,"track": "","schedule_track": "","valid": true,"reason": "SCHEDULE"},"departure": {"time": 1633314360,"schedule_time": 1633314360,"track": "","schedule_track": "","valid": true,"reason": "SCHEDULE"},"exit": false,"enter": false},{"station": {"id": "de:02000:10057::100022","name": "Repsoldstra\u00DFe","pos": {"lat": 53.548607,"lng": 10.013893}},"arrival": {"time": 1633314480,"schedule_time": 1633314480,"track": "","schedule_track": "","valid": true,"reason": "SCHEDULE"},"departure": {"time": 1633314480,"schedule_time": 1633314480,"track": "","schedule_track": "","valid": true,"reason": "SCHEDULE"},"exit": false,"enter": false},{"station": {"id": "de:02000:10024::100050","name": "U Steinstra\u00DFe (Deichtorplatz)","pos": {"lat": 53.548603,"lng": 10.006106}},"arrival": {"time": 1633314600,"schedule_time": 1633314600,"track": "","schedule_track": "","valid": true,"reason": "SCHEDULE"},"departure": {"time": 1633314600,"schedule_time": 1633314600,"track": "","schedule_track": "","valid": true,"reason": "SCHEDULE"},"exit": false,"enter": false},{"station": {"id": "de:02000:10011::100133","name": "HBF/Spitalerstra\u00DFe","pos": {"lat": 53.552631,"lng": 10.005599}},"arrival": {"time": 1633314720,"schedule_time": 1633314720,"track": "","schedule_track": "","valid": true,"reason": "SCHEDULE"},"departure": {"time": 1633314720,"schedule_time": 1633314720,"track": "","schedule_track": "","valid": true,"reason": "SCHEDULE"},"exit": false,"enter": false},{"station": {"id": "de:02000:10950:99:99","name": "Hamburg Hbf","pos": {"lat": 53.552727,"lng": 10.006898}},"arrival": {"time": 1633314840,"schedule_time": 1633314840,"track": "","schedule_track": "","valid": true,"reason": "SCHEDULE"},"departure": {"time": 1633323900,"schedule_time": 1633323900,"track": "","schedule_track": "","valid": true,"reason": "SCHEDULE"},"exit": false,"enter": false},{"station": {"id": "de:02000:8000147:99:99","name": "Hamburg-Harburg","pos": {"lat": 53.455906,"lng": 9.991704}},"arrival": {"time": 1633324620,"schedule_time": 1633324620,"track": "","schedule_track": "","valid": true,"reason": "SCHEDULE"},"departure": {"time": 1633325040,"schedule_time": 1633325040,"track": "","schedule_track": "","valid": true,"reason": "SCHEDULE"},"exit": false,"enter": false},{"station": {"id": "de:03359:51989:99:99","name": "Buxtehude","pos": {"lat": 53.470486,"lng": 9.688309}},"arrival": {"time": 1633326000,"schedule_time": 1633326000,"track": "","schedule_track": "","valid": true,"reason": "SCHEDULE"},"departure": {"time": 1633326060,"schedule_time": 1633326060,"track": "","schedule_track": "","valid": true,"reason": "SCHEDULE"},"exit": false,"enter": false},{"station": {"id": "de:03359:51989:2:8001317","name": "Buxtehude","pos": {"lat": 53.470371,"lng": 9.688322}},"arrival": {"time": 1633326240,"schedule_time": 1633326240,"track": "","schedule_track": "","valid": true,"reason": "SCHEDULE"},"departure": {"time": 1633338840,"schedule_time": 1633338840,"track": "","schedule_track": "","valid": true,"reason": "SCHEDULE"},"exit": false,"enter": false},{"station": {"id": "de:03353:51988:2:8004250","name": "Neu Wulmstorf","pos": {"lat": 53.473087,"lng": 9.788923}},"arrival": {"time": 1633339140,"schedule_time": 1633339140,"track": "","schedule_track": "","valid": true,"reason": "SCHEDULE"},"departure": {"time": 1633339140,"schedule_time": 1633339140,"track": "","schedule_track": "","valid": true,"reason": "SCHEDULE"},"exit": false,"enter": false},{"station": {"id": "de:02000:8002556:2:8004248","name": "Fischbek","pos": {"lat": 53.474781,"lng": 9.819242}},"arrival": {"time": 1633339320,"schedule_time": 1633339320,"track": "","schedule_track": "","valid": true,"reason": "SCHEDULE"},"departure": {"time": 1633339320,"schedule_time": 1633339320,"track": "","schedule_track": "","valid": true,"reason": "SCHEDULE"},"exit": false,"enter": false},{"station": {"id": "de:02000:41951:1:419104","name": "Neugraben","pos": {"lat": 53.473991,"lng": 9.852}},"arrival": {"time": 1633339560,"schedule_time": 1633339560,"track": "","schedule_track": "","valid": true,"reason": "SCHEDULE"},"departure": {"time": 1633339740,"schedule_time": 1633339740,"track": "","schedule_track": "","valid": true,"reason": "SCHEDULE"},"exit": false,"enter": false},{"station": {"id": "de:02000:41950:1:419102","name": "Neuwiedenthal","pos": {"lat": 53.473019,"lng": 9.875866}},"arrival": {"time": 1633339860,"schedule_time": 1633339860,"track": "","schedule_track": "","valid": true,"reason": "SCHEDULE"},"departure": {"time": 1633339860,"schedule_time": 1633339860,"track": "","schedule_track": "","valid": true,"reason": "SCHEDULE"},"exit": false,"enter": false},{"station": {"id": "de:02000:42950:1:429100","name": "Heimfeld","pos": {"lat": 53.465542,"lng": 9.962852}},"arrival": {"time": 1633340160,"schedule_time": 1633340160,"track": "","schedule_track": "","valid": true,"reason": "SCHEDULE"},"departure": {"time": 1633340160,"schedule_time": 1633340160,"track": "","schedule_track": "","valid": true,"reason": "SCHEDULE"},"exit": false,"enter": false},{"station": {"id": "de:02000:40950:1:409100","name": "Harburg Rathaus","pos": {"lat": 53.460609,"lng": 9.98031}},"arrival": {"time": 1633340280,"schedule_time": 1633340280,"track": "","schedule_track": "","valid": true,"reason": "SCHEDULE"},"departure": {"time": 1633340280,"schedule_time": 1633340280,"track": "","schedule_track": "","valid": true,"reason": "SCHEDULE"},"exit": false,"enter": false},{"station": {"id": "de:02000:49950:1:499100","name": "Harburg","pos": {"lat": 53.456871,"lng": 9.991395}},"arrival": {"time": 1633340400,"schedule_time": 1633340400,"track": "","schedule_track": "","valid": true,"reason": "SCHEDULE"},"departure": {"time": 1633340400,"schedule_time": 1633340400,"track": "","schedule_track": "","valid": true,"reason": "SCHEDULE"},"exit": false,"enter": false},{"station": {"id": "de:02000:54951:1:549106","name": "Wilhelmsburg","pos": {"lat": 53.498135,"lng": 10.00684}},"arrival": {"time": 1633340700,"schedule_time": 1633340700,"track": "","schedule_track": "","valid": true,"reason": "SCHEDULE"},"departure": {"time": 1633340700,"schedule_time": 1633340700,"track": "","schedule_track": "","valid": true,"reason": "SCHEDULE"},"exit": false,"enter": false},{"station": {"id": "de:02000:54950:1:549102","name": "Veddel (BallinStadt)","pos": {"lat": 53.521145,"lng": 10.013102}},"arrival": {"time": 1633340880,"schedule_time": 1633340880,"track": "","schedule_track": "","valid": true,"reason": "SCHEDULE"},"departure": {"time": 1633340880,"schedule_time": 1633340880,"track": "","schedule_track": "","valid": true,"reason": "SCHEDULE"},"exit": false,"enter": false},{"station": {"id": "de:02000:11943:3:80025511","name": "Elbbr\u00FCcken","pos": {"lat": 53.53492,"lng": 10.024893}},"arrival": {"time": 1633341000,"schedule_time": 1633341000,"track": "","schedule_track": "","valid": true,"reason": "SCHEDULE"},"departure": {"time": 1633341000,"schedule_time": 1633341000,"track": "","schedule_track": "","valid": true,"reason": "SCHEDULE"},"exit": false,"enter": false},{"station": {"id": "de:02000:10951:1:109106","name": "Hammerbrook (City S\u00FCd)","pos": {"lat": 53.546116,"lng": 10.024137}},"arrival": {"time": 1633341120,"schedule_time": 1633341120,"track": "","schedule_track": "","valid": true,"reason": "SCHEDULE"},"departure": {"time": 1633341180,"schedule_time": 1633341180,"track": "","schedule_track": "","valid": true,"reason": "SCHEDULE"},"exit": false,"enter": false},{"station": {"id": "de:02000:10950:1:109100","name": "Hamburg Hbf","pos": {"lat": 53.552837,"lng": 10.007988}},"arrival": {"time": 1633341300,"schedule_time": 1633341300,"track": "","schedule_track": "","valid": true,"reason": "SCHEDULE"},"departure": {"time": 1633341360,"schedule_time": 1633341360,"track": "","schedule_track": "","valid": true,"reason": "SCHEDULE"},"exit": false,"enter": false},{"station": {"id": "de:02000:11950:4:119103","name": "Jungfernstieg","pos": {"lat": 53.552799,"lng": 9.994603}},"arrival": {"time": 1633341480,"schedule_time": 1633341480,"track": "","schedule_track": "","valid": true,"reason": "SCHEDULE"},"departure": {"time": 1633341540,"schedule_time": 1633341540,"track": "","schedule_track": "","valid": true,"reason": "SCHEDULE"},"exit": false,"enter": false},{"station": {"id": "de:02000:11952:1:119107","name": "Stadthausbr\u00FCcke","pos": {"lat": 53.549553,"lng": 9.984523}},"arrival": {"time": 1633341600,"schedule_time": 1633341600,"track": "","schedule_track": "","valid": true,"reason": "SCHEDULE"},"departure": {"time": 1633341600,"schedule_time": 1633341600,"track": "","schedule_track": "","valid": true,"reason": "SCHEDULE"},"exit": false,"enter": false},{"station": {"id": "de:02000:80950:3:809101","name": "Landungsbr\u00FCcken","pos": {"lat": 53.546284,"lng": 9.971503}},"arrival": {"time": 1633341720,"schedule_time": 1633341720,"track": "","schedule_track": "","valid": true,"reason": "SCHEDULE"},"departure": {"time": 1633341780,"schedule_time": 1633341780,"track": "","schedule_track": "","valid": true,"reason": "SCHEDULE"},"exit": false,"enter": false},{"station": {"id": "de:02000:80951:1:809103","name": "Reeperbahn","pos": {"lat": 53.549664,"lng": 9.957956}},"arrival": {"time": 1633341840,"schedule_time": 1633341840,"track": "","schedule_track": "","valid": true,"reason": "SCHEDULE"},"departure": {"time": 1633341900,"schedule_time": 1633341900,"track": "","schedule_track": "","valid": true,"reason": "SCHEDULE"},"exit": false,"enter": false},{"station": {"id": "de:02000:80952:1:809105","name": "K\u00F6nigstra\u00DFe","pos": {"lat": 53.54781,"lng": 9.943929}},"arrival": {"time": 1633341960,"schedule_time": 1633341960,"track": "","schedule_track": "","valid": true,"reason": "SCHEDULE"},"departure": {"time": 1633341960,"schedule_time": 1633341960,"track": "","schedule_track": "","valid": true,"reason": "SCHEDULE"},"exit": false,"enter": false},{"station": {"id": "de:02000:80953:2:809106","name": "Altona","pos": {"lat": 53.55183,"lng": 9.93495}},"arrival": {"time": 1633342080,"schedule_time": 1633342080,"track": "","schedule_track": "","valid": true,"reason": "SCHEDULE"},"departure": {"time": 1633342140,"schedule_time": 1633342140,"track": "","schedule_track": "","valid": true,"reason": "SCHEDULE"},"exit": false,"enter": false},{"station": {"id": "de:02000:80958:1:809121","name": "Diebsteich","pos": {"lat": 53.568218,"lng": 9.934435}},"arrival": {"time": 1633342320,"schedule_time": 1633342320,"track": "","schedule_track": "","valid": true,"reason": "SCHEDULE"},"departure": {"time": 1633342380,"schedule_time": 1633342380,"track": "","schedule_track": "","valid": true,"reason": "SCHEDULE"},"exit": false,"enter": false},{"station": {"id": "de:02000:84952:1:849105","name": "Langenfelde","pos": {"lat": 53.579525,"lng": 9.931108}},"arrival": {"time": 1633342440,"schedule_time": 1633342440,"track": "","schedule_track": "","valid": true,"reason": "SCHEDULE"},"departure": {"time": 1633342500,"schedule_time": 1633342500,"track": "","schedule_track": "","valid": true,"reason": "SCHEDULE"},"exit": false,"enter": false},{"station": {"id": "de:02000:84953:1:849107","name": "Stellingen (Arenen)","pos": {"lat": 53.58984,"lng": 9.918513}},"arrival": {"time": 1633342560,"schedule_time": 1633342560,"track": "","schedule_track": "","valid": true,"reason": "SCHEDULE"},"departure": {"time": 1633342620,"schedule_time": 1633342620,"track": "","schedule_track": "","valid": true,"reason": "SCHEDULE"},"exit": false,"enter": false},{"station": {"id": "de:02000:84960:1:849109","name": "Eidelstedt","pos": {"lat": 53.596317,"lng": 9.906298}},"arrival": {"time": 1633342680,"schedule_time": 1633342680,"track": "","schedule_track": "","valid": true,"reason": "SCHEDULE"},"departure": {"time": 1633342740,"schedule_time": 1633342740,"track": "","schedule_track": "","valid": true,"reason": "SCHEDULE"},"exit": false,"enter": false},{"station": {"id": "de:02000:82950:1:829101","name": "Elbgaustra\u00DFe","pos": {"lat": 53.602905,"lng": 9.893131}},"arrival": {"time": 1633342860,"schedule_time": 1633342860,"track": "","schedule_track": "","valid": true,"reason": "SCHEDULE"},"departure": {"time": 1633342920,"schedule_time": 1633342920,"track": "","schedule_track": "","valid": true,"reason": "SCHEDULE"},"exit": false,"enter": false},{"station": {"id": "de:01056:83950:1:839103","name": "Krupunder","pos": {"lat": 53.615925,"lng": 9.867566}},"arrival": {"time": 1633343040,"schedule_time": 1633343040,"track": "","schedule_track": "","valid": true,"reason": "SCHEDULE"},"departure": {"time": 1633343100,"schedule_time": 1633343100,"track": "","schedule_track": "","valid": true,"reason": "SCHEDULE"},"exit": false,"enter": false},{"station": {"id": "de:01056:98950:1:989101","name": "Halstenbek","pos": {"lat": 53.630352,"lng": 9.839261}},"arrival": {"time": 1633343220,"schedule_time": 1633343220,"track": "","schedule_track": "","valid": true,"reason": "SCHEDULE"},"departure": {"time": 1633343220,"schedule_time": 1633343220,"track": "","schedule_track": "","valid": true,"reason": "SCHEDULE"},"exit": false,"enter": false},{"station": {"id": "de:01056:99950:1:999101","name": "Thesdorf","pos": {"lat": 53.644341,"lng": 9.813925}},"arrival": {"time": 1633343400,"schedule_time": 1633343400,"track": "","schedule_track": "","valid": true,"reason": "SCHEDULE"},"departure": {"time": 1633343400,"schedule_time": 1633343400,"track": "","schedule_track": "","valid": true,"reason": "SCHEDULE"},"exit": false,"enter": false},{"station": {"id": "de:01056:99951:2:999103","name": "Pinneberg","pos": {"lat": 53.654907,"lng": 9.797776}},"arrival": {"time": 1633343580,"schedule_time": 1633343580,"track": "","schedule_track": "","valid": true,"reason": "SCHEDULE"},"departure": {"time": 1632787200,"schedule_time": 1632787200,"track": "","schedule_track": "","valid": true,"reason": "SCHEDULE"},"exit": false,"enter": false},{"station": {"id": "de:01056:99950:1:999100","name": "Thesdorf","pos": {"lat": 53.644341,"lng": 9.813925}},"arrival": {"time": 1633344660,"schedule_time": 1633344660,"track": "","schedule_track": "","valid": true,"reason": "SCHEDULE"},"departure": {"time": 1633344660,"schedule_time": 1633344660,"track": "","schedule_track": "","valid": true,"reason": "SCHEDULE"},"exit": false,"enter": false},{"station": {"id": "de:01056:98950:1:989100","name": "Halstenbek","pos": {"lat": 53.630352,"lng": 9.839261}},"arrival": {"time": 1633344780,"schedule_time": 1633344780,"track": "","schedule_track": "","valid": true,"reason": "SCHEDULE"},"departure": {"time": 1633344840,"schedule_time": 1633344840,"track": "","schedule_track": "","valid": true,"reason": "SCHEDULE"},"exit": false,"enter": false},{"station": {"id": "de:01056:83950:1:839102","name": "Krupunder","pos": {"lat": 53.615925,"lng": 9.867566}},"arrival": {"time": 1633344960,"schedule_time": 1633344960,"track": "","schedule_track": "","valid": true,"reason": "SCHEDULE"},"departure": {"time": 1633345020,"schedule_time": 1633345020,"track": "","schedule_track": "","valid": true,"reason": "SCHEDULE"},"exit": false,"enter": false},{"station": {"id": "de:02000:82950:1:829100","name": "Elbgaustra\u00DFe","pos": {"lat": 53.602825,"lng": 9.893008}},"arrival": {"time": 1633345140,"schedule_time": 1633345140,"track": "","schedule_track": "","valid": true,"reason": "SCHEDULE"},"departure": {"time": 1633345320,"schedule_time": 1633345320,"track": "","schedule_track": "","valid": true,"reason": "SCHEDULE"},"exit": false,"enter": false}],"transports": [{"move_type": "Transport","move": {"range": {"from": 0,"to": 10},"category_name": "Bus","category_id": 0,"clasz": 10,"train_nr": 0,"line_id": "112","name": "Bus 112","provider": "Hamburger Verkehrsverbund (HVV)","direction": "S Blankenese"}},{"move_type": "Walk","move": {"range": {"from": 10,"to": 11},"mumo_id": 0,"price": 0,"accessibility": 0,"mumo_type": ""}},{"move_type": "Transport","move": {"range": {"from": 11,"to": 13},"category_name": "DPN","category_id": 1,"clasz": 6,"train_nr": 0,"line_id": "RE5","name": "RE5","provider": "Hamburger Verkehrsverbund (HVV)","direction": "Cuxhaven"}},{"move_type": "Walk","move": {"range": {"from": 13,"to": 14},"mumo_id": 0,"price": 0,"accessibility": 0,"mumo_type": ""}},{"move_type": "Transport","move": {"range": {"from": 14,"to": 17},"category_name": "S","category_id": 6,"clasz": 7,"train_nr": 0,"line_id": "S3","name": "S3","provider": "Hamburger Verkehrsverbund (HVV)","direction": "Neugraben"}},{"move_type": "Transport","move": {"range": {"from": 17,"to": 41},"category_name": "S","category_id": 6,"clasz": 7,"train_nr": 0,"line_id": "S3","name": "S3","provider": "Hamburger Verkehrsverbund (HVV)","direction": "Pinneberg"}},{"move_type": "Transport","move": {"range": {"from": 41,"to": 45},"category_name": "S","category_id": 6,"clasz": 7,"train_nr": 0,"line_id": "S3","name": "S3","provider": "Hamburger Verkehrsverbund (HVV)","direction": "Neugraben"}}],"trips": [{"range": {"from": 0,"to": 10},"id": {"station_id": "de:02000:10056::100019","train_nr": 0,"time": 1633313880,"target_station_id": "de:02000:81066::810180","target_time": 1633317300,"line_id": "112"},"debug": "29185990:67151:67151"},{"range": {"from": 11,"to": 13},"id": {"station_id": "de:02000:10950:99:99","train_nr": 0,"time": 1633323900,"target_station_id": "000008001352","target_time": 1633330200,"line_id": "RE5"},"debug": "29428619:77957:77957"},{"range": {"from": 14,"to": 17},"id": {"station_id": "de:03359:51989:2:8001317","train_nr": 0,"time": 1633338840,"target_station_id": "de:02000:41951:1:419104","target_time": 1633339560,"line_id": "S3"},"debug": "29397533:22405:22405"},{"range": {"from": 17,"to": 41},"id": {"station_id": "de:02000:41951:1:419104","train_nr": 0,"time": 1633339740,"target_station_id": "de:01056:99951:2:999103","target_time": 1633343580,"line_id": "S3"},"debug": "29397469:22406:22406"},{"range": {"from": 41,"to": 45},"id": {"station_id": "de:01056:99951:2:999103","train_nr": 0,"time": 1633344540,"target_station_id": "de:02000:41951:2:419105","target_time": 1633348440,"line_id": "S3"},"debug": "29397800:21934:21934"}],"attributes": [],"free_texts": [],"problems": [],"night_penalty": 0,"max_occupancy": 0,"db_costs": 0,"status": "OK"},{"stops": [{"station": {"id": "de:02000:10056::100019","name": "Osterbrookplatz","pos": {"lat": 53.547192,"lng": 10.057309}},"arrival": {"time": 0,"schedule_time": 0,"track": "","schedule_track": "","valid": false,"reason": "SCHEDULE"},"departure": {"time": 1633313880,"schedule_time": 1633313880,"track": "","schedule_track": "","valid": true,"reason": "SCHEDULE"},"exit": true,"enter": true},{"station": {"id": "de:02000:10042::100197","name": "Schadesweg","pos": {"lat": 53.54771,"lng": 10.051862}},"arrival": {"time": 1633313940,"schedule_time": 1633313940,"track": "","schedule_track": "","valid": true,"reason": "SCHEDULE"},"departure": {"time": 1633313940,"schedule_time": 1633313940,"track": "","schedule_track": "","valid": true,"reason": "SCHEDULE"},"exit": true,"enter": true},{"station": {"id": "de:02000:10041::100224","name": "Luisenweg","pos": {"lat": 53.548283,"lng": 10.046352}},"arrival": {"time": 1633314000,"schedule_time": 1633314000,"track": "","schedule_track": "","valid": true,"reason": "SCHEDULE"},"departure": {"time": 1633314000,"schedule_time": 1633314000,"track": "","schedule_track": "","valid": true,"reason": "SCHEDULE"},"exit": true,"enter": true},{"station": {"id": "de:02000:10040::100181","name": "Ausschl\u00E4ger Weg (Verkehrsamt)","pos": {"lat": 53.547268,"lng": 10.037441}},"arrival": {"time": 1633314060,"schedule_time": 1633314060,"track": "","schedule_track": "","valid": true,"reason": "SCHEDULE"},"departure": {"time": 1633314060,"schedule_time": 1633314060,"track": "","schedule_track": "","valid": true,"reason": "SCHEDULE"},"exit": true,"enter": true},{"station": {"id": "de:02000:10039::100180","name": "S\u00FCderstra\u00DFe","pos": {"lat": 53.545586,"lng": 10.031322}},"arrival": {"time": 1633314120,"schedule_time": 1633314120,"track": "","schedule_track": "","valid": true,"reason": "SCHEDULE"},"departure": {"time": 1633314120,"schedule_time": 1633314120,"track": "","schedule_track": "","valid": true,"reason": "SCHEDULE"},"exit": false,"enter": false},{"station": {"id": "de:02000:10038::100207","name": "S Hammerbrook (S\u00FCd)","pos": {"lat": 53.545261,"lng": 10.025023}},"arrival": {"time": 1633314180,"schedule_time": 1633314180,"track": "","schedule_track": "","valid": true,"reason": "SCHEDULE"},"departure": {"time": 1633314180,"schedule_time": 1633314180,"track": "","schedule_track": "","valid": true,"reason": "SCHEDULE"},"exit": false,"enter": false},{"station": {"id": "de:02000:10060::100030","name": "S Hammerbrook (Nord)","pos": {"lat": 53.547825,"lng": 10.022971}},"arrival": {"time": 1633314300,"schedule_time": 1633314300,"track": "","schedule_track": "","valid": true,"reason": "SCHEDULE"},"departure": {"time": 1633314300,"schedule_time": 1633314300,"track": "","schedule_track": "","valid": true,"reason": "SCHEDULE"},"exit": false,"enter": false},{"station": {"id": "de:02000:10058::100027","name": "Albertstra\u00DFe","pos": {"lat": 53.548969,"lng": 10.019046}},"arrival": {"time": 1633314360,"schedule_time": 1633314360,"track": "","schedule_track": "","valid": true,"reason": "SCHEDULE"},"departure": {"time": 1633314360,"schedule_time": 1633314360,"track": "","schedule_track": "","valid": true,"reason": "SCHEDULE"},"exit": false,"enter": false},{"station": {"id": "de:02000:10057::100022","name": "Repsoldstra\u00DFe","pos": {"lat": 53.548607,"lng": 10.013893}},"arrival": {"time": 1633314480,"schedule_time": 1633314480,"track": "","schedule_track": "","valid": true,"reason": "SCHEDULE"},"departure": {"time": 1633314480,"schedule_time": 1633314480,"track": "","schedule_track": "","valid": true,"reason": "SCHEDULE"},"exit": false,"enter": false},{"station": {"id": "de:02000:10024::100050","name": "U Steinstra\u00DFe (Deichtorplatz)","pos": {"lat": 53.548603,"lng": 10.006106}},"arrival": {"time": 1633314600,"schedule_time": 1633314600,"track": "","schedule_track": "","valid": true,"reason": "SCHEDULE"},"departure": {"time": 1633314600,"schedule_time": 1633314600,"track": "","schedule_track": "","valid": true,"reason": "SCHEDULE"},"exit": false,"enter": false},{"station": {"id": "de:02000:10011::100133","name": "HBF/Spitalerstra\u00DFe","pos": {"lat": 53.552631,"lng": 10.005599}},"arrival": {"time": 1633314720,"schedule_time": 1633314720,"track": "","schedule_track": "","valid": true,"reason": "SCHEDULE"},"departure": {"time": 1633314720,"schedule_time": 1633314720,"track": "","schedule_track": "","valid": true,"reason": "SCHEDULE"},"exit": false,"enter": false},{"station": {"id": "de:02000:10950:99:99","name": "Hamburg Hbf","pos": {"lat": 53.552727,"lng": 10.006898}},"arrival": {"time": 1633314840,"schedule_time": 1633314840,"track": "","schedule_track": "","valid": true,"reason": "SCHEDULE"},"departure": {"time": 1633323900,"schedule_time": 1633323900,"track": "","schedule_track": "","valid": true,"reason": "SCHEDULE"},"exit": false,"enter": false},{"station": {"id": "de:02000:8000147:99:99","name": "Hamburg-Harburg","pos": {"lat": 53.455906,"lng": 9.991704}},"arrival": {"time": 1633324620,"schedule_time": 1633324620,"track": "","schedule_track": "","valid": true,"reason": "SCHEDULE"},"departure": {"time": 1633325040,"schedule_time": 1633325040,"track": "","schedule_track": "","valid": true,"reason": "SCHEDULE"},"exit": false,"enter": false},{"station": {"id": "de:03359:51989:99:99","name": "Buxtehude","pos": {"lat": 53.470486,"lng": 9.688309}},"arrival": {"time": 1633326000,"schedule_time": 1633326000,"track": "","schedule_track": "","valid": true,"reason": "SCHEDULE"},"departure": {"time": 1633326060,"schedule_time": 1633326060,"track": "","schedule_track": "","valid": true,"reason": "SCHEDULE"},"exit": false,"enter": false},{"station": {"id": "de:03359:51989:2:8001317","name": "Buxtehude","pos": {"lat": 53.470371,"lng": 9.688322}},"arrival": {"time": 1633326240,"schedule_time": 1633326240,"track": "","schedule_track": "","valid": true,"reason": "SCHEDULE"},"departure": {"time": 1633336440,"schedule_time": 1633336440,"track": "","schedule_track": "","valid": true,"reason": "SCHEDULE"},"exit": false,"enter": false},{"station": {"id": "de:03353:51988:2:8004250","name": "Neu Wulmstorf","pos": {"lat": 53.473087,"lng": 9.788923}},"arrival": {"time": 1633336740,"schedule_time": 1633336740,"track": "","schedule_track": "","valid": true,"reason": "SCHEDULE"},"departure": {"time": 1633336740,"schedule_time": 1633336740,"track": "","schedule_track": "","valid": true,"reason": "SCHEDULE"},"exit": false,"enter": false},{"station": {"id": "de:02000:8002556:2:8004248","name": "Fischbek","pos": {"lat": 53.474781,"lng": 9.819242}},"arrival": {"time": 1633336920,"schedule_time": 1633336920,"track": "","schedule_track": "","valid": true,"reason": "SCHEDULE"},"departure": {"time": 1633336920,"schedule_time": 1633336920,"track": "","schedule_track": "","valid": true,"reason": "SCHEDULE"},"exit": false,"enter": false},{"station": {"id": "de:02000:41951:1:419104","name": "Neugraben","pos": {"lat": 53.473991,"lng": 9.852}},"arrival": {"time": 1633337160,"schedule_time": 1633337160,"track": "","schedule_track": "","valid": true,"reason": "SCHEDULE"},"departure": {"time": 1633337340,"schedule_time": 1633337340,"track": "","schedule_track": "","valid": true,"reason": "SCHEDULE"},"exit": false,"enter": false},{"station": {"id": "de:02000:41950:1:419102","name": "Neuwiedenthal","pos": {"lat": 53.473019,"lng": 9.875866}},"arrival": {"time": 1633337460,"schedule_time": 1633337460,"track": "","schedule_track": "","valid": true,"reason": "SCHEDULE"},"departure": {"time": 1633337460,"schedule_time": 1633337460,"track": "","schedule_track": "","valid": true,"reason": "SCHEDULE"},"exit": false,"enter": false},{"station": {"id": "de:02000:42950:1:429100","name": "Heimfeld","pos": {"lat": 53.465542,"lng": 9.962852}},"arrival": {"time": 1633337760,"schedule_time": 1633337760,"track": "","schedule_track": "","valid": true,"reason": "SCHEDULE"},"departure": {"time": 1633337760,"schedule_time": 1633337760,"track": "","schedule_track": "","valid": true,"reason": "SCHEDULE"},"exit": false,"enter": false},{"station": {"id": "de:02000:40950:1:409100","name": "Harburg Rathaus","pos": {"lat": 53.460609,"lng": 9.98031}},"arrival": {"time": 1633337880,"schedule_time": 1633337880,"track": "","schedule_track": "","valid": true,"reason": "SCHEDULE"},"departure": {"time": 1633337880,"schedule_time": 1633337880,"track": "","schedule_track": "","valid": true,"reason": "SCHEDULE"},"exit": false,"enter": false},{"station": {"id": "de:02000:49950:1:499100","name": "Harburg","pos": {"lat": 53.456871,"lng": 9.991395}},"arrival": {"time": 1633338000,"schedule_time": 1633338000,"track": "","schedule_track": "","valid": true,"reason": "SCHEDULE"},"departure": {"time": 1633338000,"schedule_time": 1633338000,"track": "","schedule_track": "","valid": true,"reason": "SCHEDULE"},"exit": false,"enter": false},{"station": {"id": "de:02000:54951:1:549106","name": "Wilhelmsburg","pos": {"lat": 53.498135,"lng": 10.00684}},"arrival": {"time": 1633338300,"schedule_time": 1633338300,"track": "","schedule_track": "","valid": true,"reason": "SCHEDULE"},"departure": {"time": 1633338300,"schedule_time": 1633338300,"track": "","schedule_track": "","valid": true,"reason": "SCHEDULE"},"exit": false,"enter": false},{"station": {"id": "de:02000:54950:1:549102","name": "Veddel (BallinStadt)","pos": {"lat": 53.521145,"lng": 10.013102}},"arrival": {"time": 1633338480,"schedule_time": 1633338480,"track": "","schedule_track": "","valid": true,"reason": "SCHEDULE"},"departure": {"time": 1633338480,"schedule_time": 1633338480,"track": "","schedule_track": "","valid": true,"reason": "SCHEDULE"},"exit": false,"enter": false},{"station": {"id": "de:02000:11943:3:80025511","name": "Elbbr\u00FCcken","pos": {"lat": 53.53492,"lng": 10.024893}},"arrival": {"time": 1633338600,"schedule_time": 1633338600,"track": "","schedule_track": "","valid": true,"reason": "SCHEDULE"},"departure": {"time": 1633338600,"schedule_time": 1633338600,"track": "","schedule_track": "","valid": true,"reason": "SCHEDULE"},"exit": false,"enter": false},{"station": {"id": "de:02000:10951:1:109106","name": "Hammerbrook (City S\u00FCd)","pos": {"lat": 53.546116,"lng": 10.024137}},"arrival": {"time": 1633338720,"schedule_time": 1633338720,"track": "","schedule_track": "","valid": true,"reason": "SCHEDULE"},"departure": {"time": 1633338780,"schedule_time": 1633338780,"track": "","schedule_track": "","valid": true,"reason": "SCHEDULE"},"exit": false,"enter": false},{"station": {"id": "de:02000:10950:1:109100","name": "Hamburg Hbf","pos": {"lat": 53.552837,"lng": 10.007988}},"arrival": {"time": 1633338900,"schedule_time": 1633338900,"track": "","schedule_track": "","valid": true,"reason": "SCHEDULE"},"departure": {"time": 1633338960,"schedule_time": 1633338960,"track": "","schedule_track": "","valid": true,"reason": "SCHEDULE"},"exit": false,"enter": false},{"station": {"id": "de:02000:11950:4:119103","name": "Jungfernstieg","pos": {"lat": 53.552799,"lng": 9.994603}},"arrival": {"time": 1633339080,"schedule_time": 1633339080,"track": "","schedule_track": "","valid": true,"reason": "SCHEDULE"},"departure": {"time": 1633339140,"schedule_time": 1633339140,"track": "","schedule_track": "","valid": true,"reason": "SCHEDULE"},"exit": false,"enter": false},{"station": {"id": "de:02000:11952:1:119107","name": "Stadthausbr\u00FCcke","pos": {"lat": 53.549553,"lng": 9.984523}},"arrival": {"time": 1633339200,"schedule_time": 1633339200,"track": "","schedule_track": "","valid": true,"reason": "SCHEDULE"},"departure": {"time": 1633339200,"schedule_time": 1633339200,"track": "","schedule_track": "","valid": true,"reason": "SCHEDULE"},"exit": false,"enter": false},{"station": {"id": "de:02000:80950:3:809101","name": "Landungsbr\u00FCcken","pos": {"lat": 53.546284,"lng": 9.971503}},"arrival": {"time": 1633339320,"schedule_time": 1633339320,"track": "","schedule_track": "","valid": true,"reason": "SCHEDULE"},"departure": {"time": 1633339380,"schedule_time": 1633339380,"track": "","schedule_track": "","valid": true,"reason": "SCHEDULE"},"exit": false,"enter": false},{"station": {"id": "de:02000:80951:1:809103","name": "Reeperbahn","pos": {"lat": 53.549664,"lng": 9.957956}},"arrival": {"time": 1633339440,"schedule_time": 1633339440,"track": "","schedule_track": "","valid": true,"reason": "SCHEDULE"},"departure": {"time": 1633339500,"schedule_time": 1633339500,"track": "","schedule_track": "","valid": true,"reason": "SCHEDULE"},"exit": false,"enter": false},{"station": {"id": "de:02000:80952:1:809105","name": "K\u00F6nigstra\u00DFe","pos": {"lat": 53.54781,"lng": 9.943929}},"arrival": {"time": 1633339560,"schedule_time": 1633339560,"track": "","schedule_track": "","valid": true,"reason": "SCHEDULE"},"departure": {"time": 1633339560,"schedule_time": 1633339560,"track": "","schedule_track": "","valid": true,"reason": "SCHEDULE"},"exit": false,"enter": false},{"station": {"id": "de:02000:80953:2:809106","name": "Altona","pos": {"lat": 53.55183,"lng": 9.93495}},"arrival": {"time": 1633339680,"schedule_time": 1633339680,"track": "","schedule_track": "","valid": true,"reason": "SCHEDULE"},"departure": {"time": 1633339740,"schedule_time": 1633339740,"track": "","schedule_track": "","valid": true,"reason": "SCHEDULE"},"exit": false,"enter": false},{"station": {"id": "de:02000:80958:1:809121","name": "Diebsteich","pos": {"lat": 53.568218,"lng": 9.934435}},"arrival": {"time": 1633339920,"schedule_time": 1633339920,"track": "","schedule_track": "","valid": true,"reason": "SCHEDULE"},"departure": {"time": 1633339980,"schedule_time": 1633339980,"track": "","schedule_track": "","valid": true,"reason": "SCHEDULE"},"exit": false,"enter": false},{"station": {"id": "de:02000:84952:1:849105","name": "Langenfelde","pos": {"lat": 53.579525,"lng": 9.931108}},"arrival": {"time": 1633340040,"schedule_time": 1633340040,"track": "","schedule_track": "","valid": true,"reason": "SCHEDULE"},"departure": {"time": 1633340100,"schedule_time": 1633340100,"track": "","schedule_track": "","valid": true,"reason": "SCHEDULE"},"exit": false,"enter": false},{"station": {"id": "de:02000:84953:1:849107","name": "Stellingen (Arenen)","pos": {"lat": 53.58984,"lng": 9.918513}},"arrival": {"time": 1633340160,"schedule_time": 1633340160,"track": "","schedule_track": "","valid": true,"reason": "SCHEDULE"},"departure": {"time": 1633340220,"schedule_time": 1633340220,"track": "","schedule_track": "","valid": true,"reason": "SCHEDULE"},"exit": false,"enter": false},{"station": {"id": "de:02000:84960:1:849109","name": "Eidelstedt","pos": {"lat": 53.596317,"lng": 9.906298}},"arrival": {"time": 1633340280,"schedule_time": 1633340280,"track": "","schedule_track": "","valid": true,"reason": "SCHEDULE"},"departure": {"time": 1633340340,"schedule_time": 1633340340,"track": "","schedule_track": "","valid": true,"reason": "SCHEDULE"},"exit": false,"enter": false},{"station": {"id": "de:02000:82950:1:829101","name": "Elbgaustra\u00DFe","pos": {"lat": 53.602905,"lng": 9.893131}},"arrival": {"time": 1633340460,"schedule_time": 1633340460,"track": "","schedule_track": "","valid": true,"reason": "SCHEDULE"},"departure": {"time": 1633340520,"schedule_time": 1633340520,"track": "","schedule_track": "","valid": true,"reason": "SCHEDULE"},"exit": false,"enter": false},{"station": {"id": "de:01056:83950:1:839103","name": "Krupunder","pos": {"lat": 53.615925,"lng": 9.867566}},"arrival": {"time": 1633340640,"schedule_time": 1633340640,"track": "","schedule_track": "","valid": true,"reason": "SCHEDULE"},"departure": {"time": 1633340700,"schedule_time": 1633340700,"track": "","schedule_track": "","valid": true,"reason": "SCHEDULE"},"exit": false,"enter": false},{"station": {"id": "de:01056:98950:1:989101","name": "Halstenbek","pos": {"lat": 53.630352,"lng": 9.839261}},"arrival": {"time": 1633340820,"schedule_time": 1633340820,"track": "","schedule_track": "","valid": true,"reason": "SCHEDULE"},"departure": {"time": 1633340820,"schedule_time": 1633340820,"track": "","schedule_track": "","valid": true,"reason": "SCHEDULE"},"exit": false,"enter": false},{"station": {"id": "de:01056:99950:1:999101","name": "Thesdorf","pos": {"lat": 53.644341,"lng": 9.813925}},"arrival": {"time": 1633341000,"schedule_time": 1633341000,"track": "","schedule_track": "","valid": true,"reason": "SCHEDULE"},"departure": {"time": 1633341000,"schedule_time": 1633341000,"track": "","schedule_track": "","valid": true,"reason": "SCHEDULE"},"exit": false,"enter": false},{"station": {"id": "de:01056:99951:2:999103","name": "Pinneberg","pos": {"lat": 53.654907,"lng": 9.797776}},"arrival": {"time": 1633341180,"schedule_time": 1633341180,"track": "","schedule_track": "","valid": true,"reason": "SCHEDULE"},"departure": {"time": 1632787200,"schedule_time": 1632787200,"track": "","schedule_track": "","valid": true,"reason": "SCHEDULE"},"exit": false,"enter": false},{"station": {"id": "de:01056:99950:1:999100","name": "Thesdorf","pos": {"lat": 53.644341,"lng": 9.813925}},"arrival": {"time": 1633342260,"schedule_time": 1633342260,"track": "","schedule_track": "","valid": true,"reason": "SCHEDULE"},"departure": {"time": 1633342260,"schedule_time": 1633342260,"track": "","schedule_track": "","valid": true,"reason": "SCHEDULE"},"exit": false,"enter": false},{"station": {"id": "de:01056:98950:1:989100","name": "Halstenbek","pos": {"lat": 53.630352,"lng": 9.839261}},"arrival": {"time": 1633342380,"schedule_time": 1633342380,"track": "","schedule_track": "","valid": true,"reason": "SCHEDULE"},"departure": {"time": 1633342440,"schedule_time": 1633342440,"track": "","schedule_track": "","valid": true,"reason": "SCHEDULE"},"exit": false,"enter": false},{"station": {"id": "de:01056:83950:1:839102","name": "Krupunder","pos": {"lat": 53.615925,"lng": 9.867566}},"arrival": {"time": 1633342560,"schedule_time": 1633342560,"track": "","schedule_track": "","valid": true,"reason": "SCHEDULE"},"departure": {"time": 1633342620,"schedule_time": 1633342620,"track": "","schedule_track": "","valid": true,"reason": "SCHEDULE"},"exit": false,"enter": false},{"station": {"id": "de:02000:82950:1:829100","name": "Elbgaustra\u00DFe","pos": {"lat": 53.602825,"lng": 9.893008}},"arrival": {"time": 1633342740,"schedule_time": 1633342740,"track": "","schedule_track": "","valid": true,"reason": "SCHEDULE"},"departure": {"time": 1633342920,"schedule_time": 1633342920,"track": "","schedule_track": "","valid": true,"reason": "SCHEDULE"},"exit": false,"enter": false}],"transports": [{"move_type": "Transport","move": {"range": {"from": 0,"to": 10},"category_name": "Bus","category_id": 0,"clasz": 10,"train_nr": 0,"line_id": "112","name": "Bus 112","provider": "Hamburger Verkehrsverbund (HVV)","direction": "S Blankenese"}},{"move_type": "Walk","move": {"range": {"from": 10,"to": 11},"mumo_id": 0,"price": 0,"accessibility": 0,"mumo_type": ""}},{"move_type": "Transport","move": {"range": {"from": 11,"to": 13},"category_name": "DPN","category_id": 1,"clasz": 6,"train_nr": 0,"line_id": "RE5","name": "RE5","provider": "Hamburger Verkehrsverbund (HVV)","direction": "Cuxhaven"}},{"move_type": "Walk","move": {"range": {"from": 13,"to": 14},"mumo_id": 0,"price": 0,"accessibility": 0,"mumo_type": ""}},{"move_type": "Transport","move": {"range": {"from": 14,"to": 17},"category_name": "S","category_id": 6,"clasz": 7,"train_nr": 0,"line_id": "S3","name": "S3","provider": "Hamburger Verkehrsverbund (HVV)","direction": "Neugraben"}},{"move_type": "Transport","move": {"range": {"from": 17,"to": 41},"category_name": "S","category_id": 6,"clasz": 7,"train_nr": 0,"line_id": "S3","name": "S3","provider": "Hamburger Verkehrsverbund (HVV)","direction": "Pinneberg"}},{"move_type": "Transport","move": {"range": {"from": 41,"to": 45},"category_name": "S","category_id": 6,"clasz": 7,"train_nr": 0,"line_id": "S3","name": "S3","provider": "Hamburger Verkehrsverbund (HVV)","direction": "Neugraben"}}],"trips": [{"range": {"from": 0,"to": 10},"id": {"station_id": "de:02000:10056::100019","train_nr": 0,"time": 1633313880,"target_station_id": "de:02000:81066::810180","target_time": 1633317300,"line_id": "112"},"debug": "29185990:67151:67151"},{"range": {"from": 11,"to": 13},"id": {"station_id": "de:02000:10950:99:99","train_nr": 0,"time": 1633323900,"target_station_id": "000008001352","target_time": 1633330200,"line_id": "RE5"},"debug": "29428619:77957:77957"},{"range": {"from": 14,"to": 17},"id": {"station_id": "de:03359:51989:2:8001317","train_nr": 0,"time": 1633336440,"target_station_id": "de:02000:41951:1:419104","target_time": 1633337160,"line_id": "S3"},"debug": "29397534:22407:22407"},{"range": {"from": 17,"to": 41},"id": {"station_id": "de:02000:41951:1:419104","train_nr": 0,"time": 1633337340,"target_station_id": "de:01056:99951:2:999103","target_time": 1633341180,"line_id": "S3"},"debug": "29397471:22408:22408"},{"range": {"from": 41,"to": 45},"id": {"station_id": "de:01056:99951:2:999103","train_nr": 0,"time": 1633342140,"target_station_id": "de:02000:41951:2:419105","target_time": 1633346040,"line_id": "S3"},"debug": "29397802:21939:21939"}],"attributes": [],"free_texts": [],"problems": [],"night_penalty": 0,"max_occupancy": 1,"db_costs": 0,"status": "OK"},{"stops": [{"station": {"id": "de:02000:10056::100019","name": "Osterbrookplatz","pos": {"lat": 53.547192,"lng": 10.057309}},"arrival": {"time": 0,"schedule_time": 0,"track": "","schedule_track": "","valid": false,"reason": "SCHEDULE"},"departure": {"time": 1633313880,"schedule_time": 1633313880,"track": "","schedule_track": "","valid": true,"reason": "SCHEDULE"},"exit": true,"enter": true},{"station": {"id": "de:02000:10042::100197","name": "Schadesweg","pos": {"lat": 53.54771,"lng": 10.051862}},"arrival": {"time": 1633313940,"schedule_time": 1633313940,"track": "","schedule_track": "","valid": true,"reason": "SCHEDULE"},"departure": {"time": 1633313940,"schedule_time": 1633313940,"track": "","schedule_track": "","valid": true,"reason": "SCHEDULE"},"exit": true,"enter": true},{"station": {"id": "de:02000:10041::100224","name": "Luisenweg","pos": {"lat": 53.548283,"lng": 10.046352}},"arrival": {"time": 1633314000,"schedule_time": 1633314000,"track": "","schedule_track": "","valid": true,"reason": "SCHEDULE"},"departure": {"time": 1633314000,"schedule_time": 1633314000,"track": "","schedule_track": "","valid": true,"reason": "SCHEDULE"},"exit": true,"enter": true},{"station": {"id": "de:02000:10040::100181","name": "Ausschl\u00E4ger Weg (Verkehrsamt)","pos": {"lat": 53.547268,"lng": 10.037441}},"arrival": {"time": 1633314060,"schedule_time": 1633314060,"track": "","schedule_track": "","valid": true,"reason": "SCHEDULE"},"departure": {"time": 1633314060,"schedule_time": 1633314060,"track": "","schedule_track": "","valid": true,"reason": "SCHEDULE"},"exit": true,"enter": true},{"station": {"id": "de:02000:10039::100180","name": "S\u00FCderstra\u00DFe","pos": {"lat": 53.545586,"lng": 10.031322}},"arrival": {"time": 1633314120,"schedule_time": 1633314120,"track": "","schedule_track": "","valid": true,"reason": "SCHEDULE"},"departure": {"time": 1633314120,"schedule_time": 1633314120,"track": "","schedule_track": "","valid": true,"reason": "SCHEDULE"},"exit": false,"enter": false},{"station": {"id": "de:02000:10038::100207","name": "S Hammerbrook (S\u00FCd)","pos": {"lat": 53.545261,"lng": 10.025023}},"arrival": {"time": 1633314180,"schedule_time": 1633314180,"track": "","schedule_track": "","valid": true,"reason": "SCHEDULE"},"departure": {"time": 1633314180,"schedule_time": 1633314180,"track": "","schedule_track": "","valid": true,"reason": "SCHEDULE"},"exit": false,"enter": false},{"station": {"id": "de:02000:10060::100030","name": "S Hammerbrook (Nord)","pos": {"lat": 53.547825,"lng": 10.022971}},"arrival": {"time": 1633314300,"schedule_time": 1633314300,"track": "","schedule_track": "","valid": true,"reason": "SCHEDULE"},"departure": {"time": 1633314300,"schedule_time": 1633314300,"track": "","schedule_track": "","valid": true,"reason": "SCHEDULE"},"exit": false,"enter": false},{"station": {"id": "de:02000:10058::100027","name": "Albertstra\u00DFe","pos": {"lat": 53.548969,"lng": 10.019046}},"arrival": {"time": 1633314360,"schedule_time": 1633314360,"track": "","schedule_track": "","valid": true,"reason": "SCHEDULE"},"departure": {"time": 1633314360,"schedule_time": 1633314360,"track": "","schedule_track": "","valid": true,"reason": "SCHEDULE"},"exit": false,"enter": false},{"station": {"id": "de:02000:10057::100022","name": "Repsoldstra\u00DFe","pos": {"lat": 53.548607,"lng": 10.013893}},"arrival": {"time": 1633314480,"schedule_time": 1633314480,"track": "","schedule_track": "","valid": true,"reason": "SCHEDULE"},"departure": {"time": 1633314480,"schedule_time": 1633314480,"track": "","schedule_track": "","valid": true,"reason": "SCHEDULE"},"exit": false,"enter": false},{"station": {"id": "de:02000:10024::100050","name": "U Steinstra\u00DFe (Deichtorplatz)","pos": {"lat": 53.548603,"lng": 10.006106}},"arrival": {"time": 1633314600,"schedule_time": 1633314600,"track": "","schedule_track": "","valid": true,"reason": "SCHEDULE"},"departure": {"time": 1633314600,"schedule_time": 1633314600,"track": "","schedule_track": "","valid": true,"reason": "SCHEDULE"},"exit": false,"enter": false},{"station": {"id": "de:02000:10011::100133","name": "HBF/Spitalerstra\u00DFe","pos": {"lat": 53.552631,"lng": 10.005599}},"arrival": {"time": 1633314720,"schedule_time": 1633314720,"track": "","schedule_track": "","valid": true,"reason": "SCHEDULE"},"departure": {"time": 1633314720,"schedule_time": 1633314720,"track": "","schedule_track": "","valid": true,"reason": "SCHEDULE"},"exit": false,"enter": false},{"station": {"id": "de:02000:10950:99:99","name": "Hamburg Hbf","pos": {"lat": 53.552727,"lng": 10.006898}},"arrival": {"time": 1633314840,"schedule_time": 1633314840,"track": "","schedule_track": "","valid": true,"reason": "SCHEDULE"},"departure": {"time": 1633323900,"schedule_time": 1633323900,"track": "","schedule_track": "","valid": true,"reason": "SCHEDULE"},"exit": false,"enter": false},{"station": {"id": "de:02000:8000147:99:99","name": "Hamburg-Harburg","pos": {"lat": 53.455906,"lng": 9.991704}},"arrival": {"time": 1633324620,"schedule_time": 1633324620,"track": "","schedule_track": "","valid": true,"reason": "SCHEDULE"},"departure": {"time": 1633325040,"schedule_time": 1633325040,"track": "","schedule_track": "","valid": true,"reason": "SCHEDULE"},"exit": false,"enter": false},{"station": {"id": "de:03359:51989:99:99","name": "Buxtehude","pos": {"lat": 53.470486,"lng": 9.688309}},"arrival": {"time": 1633326000,"schedule_time": 1633326000,"track": "","schedule_track": "","valid": true,"reason": "SCHEDULE"},"departure": {"time": 1633326060,"schedule_time": 1633326060,"track": "","schedule_track": "","valid": true,"reason": "SCHEDULE"},"exit": false,"enter": false},{"station": {"id": "de:03359:51989:2:8001317","name": "Buxtehude","pos": {"lat": 53.470371,"lng": 9.688322}},"arrival": {"time": 1633326240,"schedule_time": 1633326240,"track": "","schedule_track": "","valid": true,"reason": "SCHEDULE"},"departure": {"time": 1633326240,"schedule_time": 1633326240,"track": "","schedule_track": "","valid": true,"reason": "SCHEDULE"},"exit": false,"enter": false},{"station": {"id": "de:03353:51988:2:8004250","name": "Neu Wulmstorf","pos": {"lat": 53.473087,"lng": 9.788923}},"arrival": {"time": 1633326540,"schedule_time": 1633326540,"track": "","schedule_track": "","valid": true,"reason": "SCHEDULE"},"departure": {"time": 1633326540,"schedule_time": 1633326540,"track": "","schedule_track": "","valid": true,"reason": "SCHEDULE"},"exit": false,"enter": false},{"station": {"id": "de:02000:8002556:2:8004248","name": "Fischbek","pos": {"lat": 53.474781,"lng": 9.819242}},"arrival": {"time": 1633326720,"schedule_time": 1633326720,"track": "","schedule_track": "","valid": true,"reason": "SCHEDULE"},"departure": {"time": 1633326720,"schedule_time": 1633326720,"track": "","schedule_track": "","valid": true,"reason": "SCHEDULE"},"exit": false,"enter": false},{"station": {"id": "de:02000:41951:1:419104","name": "Neugraben","pos": {"lat": 53.473991,"lng": 9.852}},"arrival": {"time": 1633326960,"schedule_time": 1633326960,"track": "","schedule_track": "","valid": true,"reason": "SCHEDULE"},"departure": {"time": 1633327140,"schedule_time": 1633327140,"track": "","schedule_track": "","valid": true,"reason": "SCHEDULE"},"exit": false,"enter": false},{"station": {"id": "de:02000:41950:1:419102","name": "Neuwiedenthal","pos": {"lat": 53.473019,"lng": 9.875866}},"arrival": {"time": 1633327260,"schedule_time": 1633327260,"track": "","schedule_track": "","valid": true,"reason": "SCHEDULE"},"departure": {"time": 1633327260,"schedule_time": 1633327260,"track": "","schedule_track": "","valid": true,"reason": "SCHEDULE"},"exit": false,"enter": false},{"station": {"id": "de:02000:42950:1:429100","name": "Heimfeld","pos": {"lat": 53.465542,"lng": 9.962852}},"arrival": {"time": 1633327560,"schedule_time": 1633327560,"track": "","schedule_track": "","valid": true,"reason": "SCHEDULE"},"departure": {"time": 1633327560,"schedule_time": 1633327560,"track": "","schedule_track": "","valid": true,"reason": "SCHEDULE"},"exit": false,"enter": false},{"station": {"id": "de:02000:40950:1:409100","name": "Harburg Rathaus","pos": {"lat": 53.460609,"lng": 9.98031}},"arrival": {"time": 1633327680,"schedule_time": 1633327680,"track": "","schedule_track": "","valid": true,"reason": "SCHEDULE"},"departure": {"time": 1633327680,"schedule_time": 1633327680,"track": "","schedule_track": "","valid": true,"reason": "SCHEDULE"},"exit": false,"enter": false},{"station": {"id": "de:02000:49950:1:499100","name": "Harburg","pos": {"lat": 53.456871,"lng": 9.991395}},"arrival": {"time": 1633327800,"schedule_time": 1633327800,"track": "","schedule_track": "","valid": true,"reason": "SCHEDULE"},"departure": {"time": 1633327800,"schedule_time": 1633327800,"track": "","schedule_track": "","valid": true,"reason": "SCHEDULE"},"exit": false,"enter": false},{"station": {"id": "de:02000:54951:1:549106","name": "Wilhelmsburg","pos": {"lat": 53.498135,"lng": 10.00684}},"arrival": {"time": 1633328100,"schedule_time": 1633328100,"track": "","schedule_track": "","valid": true,"reason": "SCHEDULE"},"departure": {"time": 1633328100,"schedule_time": 1633328100,"track": "","schedule_track": "","valid": true,"reason": "SCHEDULE"},"exit": false,"enter": false},{"station": {"id": "de:02000:54950:1:549102","name": "Veddel (BallinStadt)","pos": {"lat": 53.521145,"lng": 10.013102}},"arrival": {"time": 1633328280,"schedule_time": 1633328280,"track": "","schedule_track": "","valid": true,"reason": "SCHEDULE"},"departure": {"time": 1633328280,"schedule_time": 1633328280,"track": "","schedule_track": "","valid": true,"reason": "SCHEDULE"},"exit": false,"enter": false},{"station": {"id": "de:02000:11943:3:80025511","name": "Elbbr\u00FCcken","pos": {"lat": 53.53492,"lng": 10.024893}},"arrival": {"time": 1633328400,"schedule_time": 1633328400,"track": "","schedule_track": "","valid": true,"reason": "SCHEDULE"},"departure": {"time": 1633328400,"schedule_time": 1633328400,"track": "","schedule_track": "","valid": true,"reason": "SCHEDULE"},"exit": false,"enter": false},{"station": {"id": "de:02000:10951:1:109106","name": "Hammerbrook (City S\u00FCd)","pos": {"lat": 53.546116,"lng": 10.024137}},"arrival": {"time": 1633328520,"schedule_time": 1633328520,"track": "","schedule_track": "","valid": true,"reason": "SCHEDULE"},"departure": {"time": 1633328580,"schedule_time": 1633328580,"track": "","schedule_track": "","valid": true,"reason": "SCHEDULE"},"exit": false,"enter": false},{"station": {"id": "de:02000:10950:1:109100","name": "Hamburg Hbf","pos": {"lat": 53.552837,"lng": 10.007988}},"arrival": {"time": 1633328700,"schedule_time": 1633328700,"track": "","schedule_track": "","valid": true,"reason": "SCHEDULE"},"departure": {"time": 1633328760,"schedule_time": 1633328760,"track": "","schedule_track": "","valid": true,"reason": "SCHEDULE"},"exit": false,"enter": false},{"station": {"id": "de:02000:11950:4:119103","name": "Jungfernstieg","pos": {"lat": 53.552799,"lng": 9.994603}},"arrival": {"time": 1633328880,"schedule_time": 1633328880,"track": "","schedule_track": "","valid": true,"reason": "SCHEDULE"},"departure": {"time": 1633328940,"schedule_time": 1633328940,"track": "","schedule_track": "","valid": true,"reason": "SCHEDULE"},"exit": false,"enter": false},{"station": {"id": "de:02000:11952:1:119107","name": "Stadthausbr\u00FCcke","pos": {"lat": 53.549553,"lng": 9.984523}},"arrival": {"time": 1633329000,"schedule_time": 1633329000,"track": "","schedule_track": "","valid": true,"reason": "SCHEDULE"},"departure": {"time": 1633329000,"schedule_time": 1633329000,"track": "","schedule_track": "","valid": true,"reason": "SCHEDULE"},"exit": false,"enter": false},{"station": {"id": "de:02000:80950:3:809101","name": "Landungsbr\u00FCcken","pos": {"lat": 53.546284,"lng": 9.971503}},"arrival": {"time": 1633329120,"schedule_time": 1633329120,"track": "","schedule_track": "","valid": true,"reason": "SCHEDULE"},"departure": {"time": 1633329180,"schedule_time": 1633329180,"track": "","schedule_track": "","valid": true,"reason": "SCHEDULE"},"exit": false,"enter": false},{"station": {"id": "de:02000:80951:1:809103","name": "Reeperbahn","pos": {"lat": 53.549664,"lng": 9.957956}},"arrival": {"time": 1633329240,"schedule_time": 1633329240,"track": "","schedule_track": "","valid": true,"reason": "SCHEDULE"},"departure": {"time": 1633329300,"schedule_time": 1633329300,"track": "","schedule_track": "","valid": true,"reason": "SCHEDULE"},"exit": false,"enter": false},{"station": {"id": "de:02000:80952:1:809105","name": "K\u00F6nigstra\u00DFe","pos": {"lat": 53.54781,"lng": 9.943929}},"arrival": {"time": 1633329360,"schedule_time": 1633329360,"track": "","schedule_track": "","valid": true,"reason": "SCHEDULE"},"departure": {"time": 1633329360,"schedule_time": 1633329360,"track": "","schedule_track": "","valid": true,"reason": "SCHEDULE"},"exit": false,"enter": false},{"station": {"id": "de:02000:80953:2:809106","name": "Altona","pos": {"lat": 53.55183,"lng": 9.93495}},"arrival": {"time": 1633329480,"schedule_time": 1633329480,"track": "","schedule_track": "","valid": true,"reason": "SCHEDULE"},"departure": {"time": 1633329540,"schedule_time": 1633329540,"track": "","schedule_track": "","valid": true,"reason": "SCHEDULE"},"exit": false,"enter": false},{"station": {"id": "de:02000:80958:1:809121","name": "Diebsteich","pos": {"lat": 53.568218,"lng": 9.934435}},"arrival": {"time": 1633329720,"schedule_time": 1633329720,"track": "","schedule_track": "","valid": true,"reason": "SCHEDULE"},"departure": {"time": 1633329780,"schedule_time": 1633329780,"track": "","schedule_track": "","valid": true,"reason": "SCHEDULE"},"exit": false,"enter": false},{"station": {"id": "de:02000:84952:1:849105","name": "Langenfelde","pos": {"lat": 53.579525,"lng": 9.931108}},"arrival": {"time": 1633329840,"schedule_time": 1633329840,"track": "","schedule_track": "","valid": true,"reason": "SCHEDULE"},"departure": {"time": 1633329900,"schedule_time": 1633329900,"track": "","schedule_track": "","valid": true,"reason": "SCHEDULE"},"exit": false,"enter": false},{"station": {"id": "de:02000:84953:1:849107","name": "Stellingen (Arenen)","pos": {"lat": 53.58984,"lng": 9.918513}},"arrival": {"time": 1633329960,"schedule_time": 1633329960,"track": "","schedule_track": "","valid": true,"reason": "SCHEDULE"},"departure": {"time": 1633330020,"schedule_time": 1633330020,"track": "","schedule_track": "","valid": true,"reason": "SCHEDULE"},"exit": false,"enter": false},{"station": {"id": "de:02000:84960:1:849109","name": "Eidelstedt","pos": {"lat": 53.596317,"lng": 9.906298}},"arrival": {"time": 1633330080,"schedule_time": 1633330080,"track": "","schedule_track": "","valid": true,"reason": "SCHEDULE"},"departure": {"time": 1633330140,"schedule_time": 1633330140,"track": "","schedule_track": "","valid": true,"reason": "SCHEDULE"},"exit": false,"enter": false},{"station": {"id": "de:02000:82950:1:829101","name": "Elbgaustra\u00DFe","pos": {"lat": 53.602905,"lng": 9.893131}},"arrival": {"time": 1633330260,"schedule_time": 1633330260,"track": "","schedule_track": "","valid": true,"reason": "SCHEDULE"},"departure": {"time": 1633330320,"schedule_time": 1633330320,"track": "","schedule_track": "","valid": true,"reason": "SCHEDULE"},"exit": false,"enter": false},{"station": {"id": "de:01056:83950:1:839103","name": "Krupunder","pos": {"lat": 53.615925,"lng": 9.867566}},"arrival": {"time": 1633330440,"schedule_time": 1633330440,"track": "","schedule_track": "","valid": true,"reason": "SCHEDULE"},"departure": {"time": 1633330500,"schedule_time": 1633330500,"track": "","schedule_track": "","valid": true,"reason": "SCHEDULE"},"exit": false,"enter": false},{"station": {"id": "de:01056:98950:1:989101","name": "Halstenbek","pos": {"lat": 53.630352,"lng": 9.839261}},"arrival": {"time": 1633330620,"schedule_time": 1633330620,"track": "","schedule_track": "","valid": true,"reason": "SCHEDULE"},"departure": {"time": 1633330620,"schedule_time": 1633330620,"track": "","schedule_track": "","valid": true,"reason": "SCHEDULE"},"exit": false,"enter": false},{"station": {"id": "de:01056:99950:1:999101","name": "Thesdorf","pos": {"lat": 53.644341,"lng": 9.813925}},"arrival": {"time": 1633330800,"schedule_time": 1633330800,"track": "","schedule_track": "","valid": true,"reason": "SCHEDULE"},"departure": {"time": 1633330800,"schedule_time": 1633330800,"track": "","schedule_track": "","valid": true,"reason": "SCHEDULE"},"exit": false,"enter": false},{"station": {"id": "de:01056:99951:1:999102","name": "Pinneberg","pos": {"lat": 53.654907,"lng": 9.797776}},"arrival": {"time": 1633330980,"schedule_time": 1633330980,"track": "","schedule_track": "","valid": true,"reason": "SCHEDULE"},"departure": {"time": 1632787200,"schedule_time": 1632787200,"track": "","schedule_track": "","valid": true,"reason": "SCHEDULE"},"exit": false,"enter": false},{"station": {"id": "de:01056:99950:1:999100","name": "Thesdorf","pos": {"lat": 53.644341,"lng": 9.813925}},"arrival": {"time": 1633332060,"schedule_time": 1633332060,"track": "","schedule_track": "","valid": true,"reason": "SCHEDULE"},"departure": {"time": 1633332060,"schedule_time": 1633332060,"track": "","schedule_track": "","valid": true,"reason": "SCHEDULE"},"exit": false,"enter": false},{"station": {"id": "de:01056:98950:1:989100","name": "Halstenbek","pos": {"lat": 53.630352,"lng": 9.839261}},"arrival": {"time": 1633332180,"schedule_time": 1633332180,"track": "","schedule_track": "","valid": true,"reason": "SCHEDULE"},"departure": {"time": 1633332240,"schedule_time": 1633332240,"track": "","schedule_track": "","valid": true,"reason": "SCHEDULE"},"exit": false,"enter": false},{"station": {"id": "de:01056:83950:1:839102","name": "Krupunder","pos": {"lat": 53.615925,"lng": 9.867566}},"arrival": {"time": 1633332360,"schedule_time": 1633332360,"track": "","schedule_track": "","valid": true,"reason": "SCHEDULE"},"departure": {"time": 1633332420,"schedule_time": 1633332420,"track": "","schedule_track": "","valid": true,"reason": "SCHEDULE"},"exit": false,"enter": false},{"station": {"id": "de:02000:82950:1:829100","name": "Elbgaustra\u00DFe","pos": {"lat": 53.602825,"lng": 9.893008}},"arrival": {"time": 1633332540,"schedule_time": 1633332540,"track": "","schedule_track": "","valid": true,"reason": "SCHEDULE"},"departure": {"time": 1633332720,"schedule_time": 1633332720,"track": "","schedule_track": "","valid": true,"reason": "SCHEDULE"},"exit": false,"enter": false}],"transports": [{"move_type": "Transport","move": {"range": {"from": 0,"to": 10},"category_name": "Bus","category_id": 0,"clasz": 10,"train_nr": 0,"line_id": "112","name": "Bus 112","provider": "Hamburger Verkehrsverbund (HVV)","direction": "S Blankenese"}},{"move_type": "Walk","move": {"range": {"from": 10,"to": 11},"mumo_id": 0,"price": 0,"accessibility": 0,"mumo_type": ""}},{"move_type": "Transport","move": {"range": {"from": 11,"to": 13},"category_name": "DPN","category_id": 1,"clasz": 6,"train_nr": 0,"line_id": "RE5","name": "RE5","provider": "Hamburger Verkehrsverbund (HVV)","direction": "Cuxhaven"}},{"move_type": "Walk","move": {"range": {"from": 13,"to": 14},"mumo_id": 0,"price": 0,"accessibility": 0,"mumo_type": ""}},{"move_type": "Transport","move": {"range": {"from": 14,"to": 17},"category_name": "S","category_id": 6,"clasz": 7,"train_nr": 0,"line_id": "S3","name": "S3","provider": "Hamburger Verkehrsverbund (HVV)","direction": "Neugraben"}},{"move_type": "Transport","move": {"range": {"from": 17,"to": 41},"category_name": "S","category_id": 6,"clasz": 7,"train_nr": 0,"line_id": "S3","name": "S3","provider": "Hamburger Verkehrsverbund (HVV)","direction": "Pinneberg"}},{"move_type": "Transport","move": {"range": {"from": 41,"to": 45},"category_name": "S","category_id": 6,"clasz": 7,"train_nr": 0,"line_id": "S3","name": "S3","provider": "Hamburger Verkehrsverbund (HVV)","direction": "Neugraben"}}],"trips": [{"range": {"from": 0,"to": 10},"id": {"station_id": "de:02000:10056::100019","train_nr": 0,"time": 1633313880,"target_station_id": "de:02000:81066::810180","target_time": 1633317300,"line_id": "112"},"debug": "29185990:67151:67151"},{"range": {"from": 11,"to": 13},"id": {"station_id": "de:02000:10950:99:99","train_nr": 0,"time": 1633323900,"target_station_id": "000008001352","target_time": 1633330200,"line_id": "RE5"},"debug": "29428619:77957:77957"},{"range": {"from": 14,"to": 17},"id": {"station_id": "de:03359:51989:2:8001317","train_nr": 0,"time": 1633326240,"target_station_id": "de:02000:41951:1:419104","target_time": 1633326960,"line_id": "S3"},"debug": "29397539:22419:22419"},{"range": {"from": 17,"to": 41},"id": {"station_id": "de:02000:41951:1:419104","train_nr": 0,"time": 1633327140,"target_station_id": "de:01056:99951:1:999102","target_time": 1633330980,"line_id": "S3"},"debug": "29397402:22420:22420"},{"range": {"from": 41,"to": 45},"id": {"station_id": "de:01056:99951:1:999102","train_nr": 0,"time": 1633331940,"target_station_id": "de:02000:41951:2:419106","target_time": 1633335840,"line_id": "S3"},"debug": "25807508:21535:21535"}],"attributes": [],"free_texts": [],"problems": [],"night_penalty": 0,"max_occupancy": 2,"db_costs": 0,"status": "OK"},{"stops": [{"station": {"id": "de:02000:10056::100019","name": "Osterbrookplatz","pos": {"lat": 53.547192,"lng": 10.057309}},"arrival": {"time": 0,"schedule_time": 0,"track": "","schedule_track": "","valid": false,"reason": "SCHEDULE"},"departure": {"time": 1633313880,"schedule_time": 1633313880,"track": "","schedule_track": "","valid": true,"reason": "SCHEDULE"},"exit": true,"enter": true},{"station": {"id": "de:02000:10042::100197","name": "Schadesweg","pos": {"lat": 53.54771,"lng": 10.051862}},"arrival": {"time": 1633313940,"schedule_time": 1633313940,"track": "","schedule_track": "","valid": true,"reason": "SCHEDULE"},"departure": {"time": 1633313940,"schedule_time": 1633313940,"track": "","schedule_track": "","valid": true,"reason": "SCHEDULE"},"exit": true,"enter": true},{"station": {"id": "de:02000:10041::100224","name": "Luisenweg","pos": {"lat": 53.548283,"lng": 10.046352}},"arrival": {"time": 1633314000,"schedule_time": 1633314000,"track": "","schedule_track": "","valid": true,"reason": "SCHEDULE"},"departure": {"time": 1633314000,"schedule_time": 1633314000,"track": "","schedule_track": "","valid": true,"reason": "SCHEDULE"},"exit": true,"enter": true},{"station": {"id": "de:02000:10040::100181","name": "Ausschl\u00E4ger Weg (Verkehrsamt)","pos": {"lat": 53.547268,"lng": 10.037441}},"arrival": {"time": 1633314060,"schedule_time": 1633314060,"track": "","schedule_track": "","valid": true,"reason": "SCHEDULE"},"departure": {"time": 1633314060,"schedule_time": 1633314060,"track": "","schedule_track": "","valid": true,"reason": "SCHEDULE"},"exit": true,"enter": true},{"station": {"id": "de:02000:10039::100180","name": "S\u00FCderstra\u00DFe","pos": {"lat": 53.545586,"lng": 10.031322}},"arrival": {"time": 1633314120,"schedule_time": 1633314120,"track": "","schedule_track": "","valid": true,"reason": "SCHEDULE"},"departure": {"time": 1633314120,"schedule_time": 1633314120,"track": "","schedule_track": "","valid": true,"reason": "SCHEDULE"},"exit": true,"enter": true},{"station": {"id": "de:02000:10038::100207","name": "S Hammerbrook (S\u00FCd)","pos": {"lat": 53.545261,"lng": 10.025023}},"arrival": {"time": 1633314180,"schedule_time": 1633314180,"track": "","schedule_track": "","valid": true,"reason": "SCHEDULE"},"departure": {"time": 1633314180,"schedule_time": 1633314180,"track": "","schedule_track": "","valid": true,"reason": "SCHEDULE"},"exit": false,"enter": false},{"station": {"id": "de:02000:10060::100030","name": "S Hammerbrook (Nord)","pos": {"lat": 53.547825,"lng": 10.022971}},"arrival": {"time": 1633314300,"schedule_time": 1633314300,"track": "","schedule_track": "","valid": true,"reason": "SCHEDULE"},"departure": {"time": 1633314300,"schedule_time": 1633314300,"track": "","schedule_track": "","valid": true,"reason": "SCHEDULE"},"exit": false,"enter": false},{"station": {"id": "de:02000:10058::100027","name": "Albertstra\u00DFe","pos": {"lat": 53.548969,"lng": 10.019046}},"arrival": {"time": 1633314360,"schedule_time": 1633314360,"track": "","schedule_track": "","valid": true,"reason": "SCHEDULE"},"departure": {"time": 1633314360,"schedule_time": 1633314360,"track": "","schedule_track": "","valid": true,"reason": "SCHEDULE"},"exit": false,"enter": false},{"station": {"id": "de:02000:10057::100022","name": "Repsoldstra\u00DFe","pos": {"lat": 53.548607,"lng": 10.013893}},"arrival": {"time": 1633314480,"schedule_time": 1633314480,"track": "","schedule_track": "","valid": true,"reason": "SCHEDULE"},"departure": {"time": 1633314480,"schedule_time": 1633314480,"track": "","schedule_track": "","valid": true,"reason": "SCHEDULE"},"exit": false,"enter": false},{"station": {"id": "de:02000:10024::100050","name": "U Steinstra\u00DFe (Deichtorplatz)","pos": {"lat": 53.548603,"lng": 10.006106}},"arrival": {"time": 1633314600,"schedule_time": 1633314600,"track": "","schedule_track": "","valid": true,"reason": "SCHEDULE"},"departure": {"time": 1633314600,"schedule_time": 1633314600,"track": "","schedule_track": "","valid": true,"reason": "SCHEDULE"},"exit": false,"enter": false},{"station": {"id": "de:02000:10011::100133","name": "HBF/Spitalerstra\u00DFe","pos": {"lat": 53.552631,"lng": 10.005599}},"arrival": {"time": 1633315080,"schedule_time": 1633315080,"track": "","schedule_track": "","valid": true,"reason": "SCHEDULE"},"departure": {"time": 1633315080,"schedule_time": 1633315080,"track": "","schedule_track": "","valid": true,"reason": "SCHEDULE"},"exit": false,"enter": false},{"station": {"id": "de:02000:11003:3:110021","name": "Rathausmarkt","pos": {"lat": 53.550385,"lng": 9.994033}},"arrival": {"time": 1633315500,"schedule_time": 1633315500,"track": "","schedule_track": "","valid": true,"reason": "SCHEDULE"},"departure": {"time": 1633315500,"schedule_time": 1633315500,"track": "","schedule_track": "","valid": true,"reason": "SCHEDULE"},"exit": false,"enter": false},{"station": {"id": "de:02000:11004::110384","name": "U R\u00F6dingsmarkt (Gro\u00DFer Burstah)","pos": {"lat": 53.548424,"lng": 9.989823}},"arrival": {"time": 1633315560,"schedule_time": 1633315560,"track": "","schedule_track": "","valid": true,"reason": "SCHEDULE"},"departure": {"time": 1633315560,"schedule_time": 1633315560,"track": "","schedule_track": "","valid": true,"reason": "SCHEDULE"},"exit": false,"enter": false},{"station": {"id": "900000590082","name": "Axel-Springer-Platz","pos": {"lat": 53.552574,"lng": 9.985469}},"arrival": {"time": 1633315680,"schedule_time": 1633315680,"track": "","schedule_track": "","valid": true,"reason": "SCHEDULE"},"departure": {"time": 1633315680,"schedule_time": 1633315680,"track": "","schedule_track": "","valid": true,"reason": "SCHEDULE"},"exit": false,"enter": false},{"station": {"id": "de:02000:11038::110382","name": "Dragonerstall","pos": {"lat": 53.555443,"lng": 9.980737}},"arrival": {"time": 1633315740,"schedule_time": 1633315740,"track": "","schedule_track": "","valid": true,"reason": "SCHEDULE"},"departure": {"time": 1633315740,"schedule_time": 1633315740,"track": "","schedule_track": "","valid": true,"reason": "SCHEDULE"},"exit": false,"enter": false},{"station": {"id": "de:02000:11014:1:110075","name": "Sievekingplatz","pos": {"lat": 53.556145,"lng": 9.977328}},"arrival": {"time": 1633315800,"schedule_time": 1633315800,"track": "","schedule_track": "","valid": true,"reason": "SCHEDULE"},"departure": {"time": 1633315800,"schedule_time": 1633315800,"track": "","schedule_track": "","valid": true,"reason": "SCHEDULE"},"exit": false,"enter": false},{"station": {"id": "de:02000:11017::110078","name": "U Feldstra\u00DFe","pos": {"lat": 53.557339,"lng": 9.969222}},"arrival": {"time": 1633315920,"schedule_time": 1633315920,"track": "","schedule_track": "","valid": true,"reason": "SCHEDULE"},"departure": {"time": 1633315920,"schedule_time": 1633315920,"track": "","schedule_track": "","valid": true,"reason": "SCHEDULE"},"exit": false,"enter": false},{"station": {"id": "de:02000:11039::110148","name": "Paulinenstra\u00DFe","pos": {"lat": 53.554821,"lng": 9.964607}},"arrival": {"time": 1633316460,"schedule_time": 1633316460,"track": "","schedule_track": "","valid": true,"reason": "SCHEDULE"},"departure": {"time": 1633316460,"schedule_time": 1633316460,"track": "","schedule_track": "","valid": true,"reason": "SCHEDULE"},"exit": false,"enter": false},{"station": {"id": "de:02000:80017:2:800101","name": "U St.Pauli","pos": {"lat": 53.550472,"lng": 9.970256}},"arrival": {"time": 1633316580,"schedule_time": 1633316580,"track": "","schedule_track": "","valid": true,"reason": "SCHEDULE"},"departure": {"time": 1633316580,"schedule_time": 1633316580,"track": "","schedule_track": "","valid": true,"reason": "SCHEDULE"},"exit": false,"enter": false},{"station": {"id": "de:02000:11005:1:110045","name": "Michaeliskirche","pos": {"lat": 53.549164,"lng": 9.978509}},"arrival": {"time": 1633316700,"schedule_time": 1633316700,"track": "","schedule_track": "","valid": true,"reason": "SCHEDULE"},"departure": {"time": 1633316700,"schedule_time": 1633316700,"track": "","schedule_track": "","valid": true,"reason": "SCHEDULE"},"exit": false,"enter": false},{"station": {"id": "de:02000:11049::110473","name": "Domstra\u00DFe","pos": {"lat": 53.548187,"lng": 9.994645}},"arrival": {"time": 1633316880,"schedule_time": 1633316880,"track": "","schedule_track": "","valid": true,"reason": "SCHEDULE"},"departure": {"time": 1633316880,"schedule_time": 1633316880,"track": "","schedule_track": "","valid": true,"reason": "SCHEDULE"},"exit": false,"enter": false},{"station": {"id": "de:02000:11099::110995","name": "Speersort (M\u00F6)","pos": {"lat": 53.549671,"lng": 9.997426}},"arrival": {"time": 1633316940,"schedule_time": 1633316940,"track": "","schedule_track": "","valid": true,"reason": "SCHEDULE"},"departure": {"time": 1633316940,"schedule_time": 1633316940,"track": "","schedule_track": "","valid": true,"reason": "SCHEDULE"},"exit": false,"enter": false},{"station": {"id": "de:02000:10064::100611","name": "Jakobikirchhof (M\u00F6)","pos": {"lat": 53.54995,"lng": 9.999786}},"arrival": {"time": 1633317000,"schedule_time": 1633317000,"track": "","schedule_track": "","valid": true,"reason": "SCHEDULE"},"departure": {"time": 1633317000,"schedule_time": 1633317000,"track": "","schedule_track": "","valid": true,"reason": "SCHEDULE"},"exit": false,"enter": false},{"station": {"id": "de:02000:10051::100142","name": "HBF/Kirchenallee","pos": {"lat": 53.552917,"lng": 10.008745}},"arrival": {"time": 1633317180,"schedule_time": 1633317180,"track": "","schedule_track": "","valid": true,"reason": "SCHEDULE"},"departure": {"time": 1633317180,"schedule_time": 1633317180,"track": "","schedule_track": "","valid": true,"reason": "SCHEDULE"},"exit": false,"enter": false},{"station": {"id": "de:02000:10950:1:109100","name": "Hamburg Hbf","pos": {"lat": 53.552837,"lng": 10.007988}},"arrival": {"time": 1633317300,"schedule_time": 1633317300,"track": "","schedule_track": "","valid": true,"reason": "SCHEDULE"},"departure": {"time": 1633317360,"schedule_time": 1633317360,"track": "","schedule_track": "","valid": true,"reason": "SCHEDULE"},"exit": false,"enter": false},{"station": {"id": "de:02000:11950:4:119103","name": "Jungfernstieg","pos": {"lat": 53.552799,"lng": 9.994603}},"arrival": {"time": 1633317480,"schedule_time": 1633317480,"track": "","schedule_track": "","valid": true,"reason": "SCHEDULE"},"departure": {"time": 1633317540,"schedule_time": 1633317540,"track": "","schedule_track": "","valid": true,"reason": "SCHEDULE"},"exit": false,"enter": false},{"station": {"id": "de:02000:11952:1:119107","name": "Stadthausbr\u00FCcke","pos": {"lat": 53.549553,"lng": 9.984523}},"arrival": {"time": 1633317600,"schedule_time": 1633317600,"track": "","schedule_track": "","valid": true,"reason": "SCHEDULE"},"departure": {"time": 1633317600,"schedule_time": 1633317600,"track": "","schedule_track": "","valid": true,"reason": "SCHEDULE"},"exit": false,"enter": false},{"station": {"id": "de:02000:80950:3:809101","name": "Landungsbr\u00FCcken","pos": {"lat": 53.546284,"lng": 9.971503}},"arrival": {"time": 1633317720,"schedule_time": 1633317720,"track": "","schedule_track": "","valid": true,"reason": "SCHEDULE"},"departure": {"time": 1633317780,"schedule_time": 1633317780,"track": "","schedule_track": "","valid": true,"reason": "SCHEDULE"},"exit": false,"enter": false},{"station": {"id": "de:02000:80951:1:809103","name": "Reeperbahn","pos": {"lat": 53.549664,"lng": 9.957956}},"arrival": {"time": 1633317840,"schedule_time": 1633317840,"track": "","schedule_track": "","valid": true,"reason": "SCHEDULE"},"departure": {"time": 1633317900,"schedule_time": 1633317900,"track": "","schedule_track": "","valid": true,"reason": "SCHEDULE"},"exit": false,"enter": false},{"station": {"id": "de:02000:80952:1:809105","name": "K\u00F6nigstra\u00DFe","pos": {"lat": 53.54781,"lng": 9.943929}},"arrival": {"time": 1633317960,"schedule_time": 1633317960,"track": "","schedule_track": "","valid": true,"reason": "SCHEDULE"},"departure": {"time": 1633317960,"schedule_time": 1633317960,"track": "","schedule_track": "","valid": true,"reason": "SCHEDULE"},"exit": false,"enter": false},{"station": {"id": "de:02000:80953:2:809106","name": "Altona","pos": {"lat": 53.55183,"lng": 9.93495}},"arrival": {"time": 1633318080,"schedule_time": 1633318080,"track": "","schedule_track": "","valid": true,"reason": "SCHEDULE"},"departure": {"time": 1633318140,"schedule_time": 1633318140,"track": "","schedule_track": "","valid": true,"reason": "SCHEDULE"},"exit": false,"enter": false},{"station": {"id": "de:02000:80958:1:809121","name": "Diebsteich","pos": {"lat": 53.568218,"lng": 9.934435}},"arrival": {"time": 1633318320,"schedule_time": 1633318320,"track": "","schedule_track": "","valid": true,"reason": "SCHEDULE"},"departure": {"time": 1633318380,"schedule_time": 1633318380,"track": "","schedule_track": "","valid": true,"reason": "SCHEDULE"},"exit": false,"enter": false},{"station": {"id": "de:02000:84952:1:849105","name": "Langenfelde","pos": {"lat": 53.579525,"lng": 9.931108}},"arrival": {"time": 1633318440,"schedule_time": 1633318440,"track": "","schedule_track": "","valid": true,"reason": "SCHEDULE"},"departure": {"time": 1633318500,"schedule_time": 1633318500,"track": "","schedule_track": "","valid": true,"reason": "SCHEDULE"},"exit": false,"enter": false},{"station": {"id": "de:02000:84953:1:849107","name": "Stellingen (Arenen)","pos": {"lat": 53.58984,"lng": 9.918513}},"arrival": {"time": 1633318560,"schedule_time": 1633318560,"track": "","schedule_track": "","valid": true,"reason": "SCHEDULE"},"departure": {"time": 1633318620,"schedule_time": 1633318620,"track": "","schedule_track": "","valid": true,"reason": "SCHEDULE"},"exit": false,"enter": false},{"station": {"id": "de:02000:84960:1:849109","name": "Eidelstedt","pos": {"lat": 53.596317,"lng": 9.906298}},"arrival": {"time": 1633318680,"schedule_time": 1633318680,"track": "","schedule_track": "","valid": true,"reason": "SCHEDULE"},"departure": {"time": 1633318740,"schedule_time": 1633318740,"track": "","schedule_track": "","valid": true,"reason": "SCHEDULE"},"exit": false,"enter": false},{"station": {"id": "de:02000:82950:1:829101","name": "Elbgaustra\u00DFe","pos": {"lat": 53.602905,"lng": 9.893131}},"arrival": {"time": 1633318860,"schedule_time": 1633318860,"track": "","schedule_track": "","valid": true,"reason": "SCHEDULE"},"departure": {"time": 1633318920,"schedule_time": 1633318920,"track": "","schedule_track": "","valid": true,"reason": "SCHEDULE"},"exit": false,"enter": false},{"station": {"id": "de:01056:83950:1:839103","name": "Krupunder","pos": {"lat": 53.615925,"lng": 9.867566}},"arrival": {"time": 1633319040,"schedule_time": 1633319040,"track": "","schedule_track": "","valid": true,"reason": "SCHEDULE"},"departure": {"time": 1633319100,"schedule_time": 1633319100,"track": "","schedule_track": "","valid": true,"reason": "SCHEDULE"},"exit": false,"enter": false},{"station": {"id": "de:01056:98950:1:989101","name": "Halstenbek","pos": {"lat": 53.630352,"lng": 9.839261}},"arrival": {"time": 1633319220,"schedule_time": 1633319220,"track": "","schedule_track": "","valid": true,"reason": "SCHEDULE"},"departure": {"time": 1633319220,"schedule_time": 1633319220,"track": "","schedule_track": "","valid": true,"reason": "SCHEDULE"},"exit": false,"enter": false},{"station": {"id": "de:01056:99950:1:999101","name": "Thesdorf","pos": {"lat": 53.644341,"lng": 9.813925}},"arrival": {"time": 1633319400,"schedule_time": 1633319400,"track": "","schedule_track": "","valid": true,"reason": "SCHEDULE"},"departure": {"time": 1633319400,"schedule_time": 1633319400,"track": "","schedule_track": "","valid": true,"reason": "SCHEDULE"},"exit": false,"enter": false},{"station": {"id": "de:01056:99951:2:999103","name": "Pinneberg","pos": {"lat": 53.654907,"lng": 9.797776}},"arrival": {"time": 1633319580,"schedule_time": 1633319580,"track": "","schedule_track": "","valid": true,"reason": "SCHEDULE"},"departure": {"time": 1632787200,"schedule_time": 1632787200,"track": "","schedule_track": "","valid": true,"reason": "SCHEDULE"},"exit": false,"enter": false},{"station": {"id": "de:01056:99950:1:999100","name": "Thesdorf","pos": {"lat": 53.644341,"lng": 9.813925}},"arrival": {"time": 1633320060,"schedule_time": 1633320060,"track": "","schedule_track": "","valid": true,"reason": "SCHEDULE"},"departure": {"time": 1633320060,"schedule_time": 1633320060,"track": "","schedule_track": "","valid": true,"reason": "SCHEDULE"},"exit": false,"enter": false},{"station": {"id": "de:01056:98950:1:989100","name": "Halstenbek","pos": {"lat": 53.630352,"lng": 9.839261}},"arrival": {"time": 1633320180,"schedule_time": 1633320180,"track": "","schedule_track": "","valid": true,"reason": "SCHEDULE"},"departure": {"time": 1633320240,"schedule_time": 1633320240,"track": "","schedule_track": "","valid": true,"reason": "SCHEDULE"},"exit": false,"enter": false},{"station": {"id": "de:01056:83950:1:839102","name": "Krupunder","pos": {"lat": 53.615925,"lng": 9.867566}},"arrival": {"time": 1633320360,"schedule_time": 1633320360,"track": "","schedule_track": "","valid": true,"reason": "SCHEDULE"},"departure": {"time": 1633320420,"schedule_time": 1633320420,"track": "","schedule_track": "","valid": true,"reason": "SCHEDULE"},"exit": false,"enter": false},{"station": {"id": "de:02000:82950:1:829100","name": "Elbgaustra\u00DFe","pos": {"lat": 53.602825,"lng": 9.893008}},"arrival": {"time": 1633320540,"schedule_time": 1633320540,"track": "","schedule_track": "","valid": true,"reason": "SCHEDULE"},"departure": {"time": 1633320720,"schedule_time": 1633320720,"track": "","schedule_track": "","valid": true,"reason": "SCHEDULE"},"exit": false,"enter": false}],"transports": [{"move_type": "Transport","move": {"range": {"from": 0,"to": 9},"category_name": "Bus","category_id": 0,"clasz": 10,"train_nr": 0,"line_id": "112","name": "Bus 112","provider": "Hamburger Verkehrsverbund (HVV)","direction": "S Blankenese"}},{"move_type": "Transport","move": {"range": {"from": 9,"to": 16},"category_name": "Bus","category_id": 0,"clasz": 10,"train_nr": 0,"line_id": "3","name": "Bus 3","provider": "Hamburger Verkehrsverbund (HVV)","direction": "Stadionstra\u00DFe"}},{"move_type": "Transport","move": {"range": {"from": 16,"to": 23},"category_name": "Bus","category_id": 0,"clasz": 10,"train_nr": 0,"line_id": "17","name": "Bus 17","provider": "Hamburger Verkehrsverbund (HVV)","direction": "U Berne (Berner Heerweg)"}},{"move_type": "Walk","move": {"range": {"from": 23,"to": 24},"mumo_id": 0,"price": 0,"accessibility": 0,"mumo_type": ""}},{"move_type": "Transport","move": {"range": {"from": 24,"to": 39},"category_name": "S","category_id": 6,"clasz": 7,"train_nr": 0,"line_id": "S3","name": "S3","provider": "Hamburger Verkehrsverbund (HVV)","direction": "Pinneberg"}},{"move_type": "Transport","move": {"range": {"from": 39,"to": 43},"category_name": "S","category_id": 6,"clasz": 7,"train_nr": 0,"line_id": "S3","name": "S3","provider": "Hamburger Verkehrsverbund (HVV)","direction": "Neugraben"}}],"trips": [{"range": {"from": 0,"to": 9},"id": {"station_id": "de:02000:10056::100019","train_nr": 0,"time": 1633313880,"target_station_id": "de:02000:81066::810180","target_time": 1633317300,"line_id": "112"},"debug": "29185990:67151:67151"},{"range": {"from": 9,"to": 16},"id": {"station_id": "de:02000:61043::610047","train_nr": 0,"time": 1633314180,"target_station_id": "de:02000:82004::820010","target_time": 1633317000,"line_id": "3"},"debug": "26645473:7550:7550"},{"range": {"from": 16,"to": 23},"id": {"station_id": "de:02000:11017::110078","train_nr": 0,"time": 1633316400,"target_station_id": "de:02000:65026::650028","target_time": 1633320480,"line_id": "17"},"debug": "28778290:35618:35618"},{"range": {"from": 24,"to": 39},"id": {"station_id": "de:02000:41951:1:419104","train_nr": 0,"time": 1633315740,"target_station_id": "de:01056:99951:2:999103","target_time": 1633319580,"line_id": "S3"},"debug": "29397494:22534:22534"},{"range": {"from": 39,"to": 43},"id": {"station_id": "de:01056:99951:2:999103","train_nr": 0,"time": 1633319940,"target_station_id": "de:02000:41951:2:419105","target_time": 1633323840,"line_id": "S3"},"debug": "29397824:21984:21984"}],"attributes": [],"free_texts": [],"problems": [],"night_penalty": 0,"max_occupancy": 0,"db_costs": 0,"status": "OK"}],"interval_begin": 1633615680,"interval_end": 1633615680,"direct_connections": []},"id": 867}